[
  {
    "name": "PCYD泥岗西村01井",
    "lng": 114.0991544723511,
    "lat": 22.566120600060135,
    "address": "广东省深圳市罗湖区清水河街道泥岗西路1040-11号万年青大厦附近",
    "code": "20180821105438915",
    "status": 2
  },
  {
    "name": "YD泰然五路01",
    "lng": 114.03109073638916,
    "lat": 22.53111948231124,
    "address": "广东省深圳市福田区沙头街道泰然五路天经大厦附近",
    "code": "20180112151148627",
    "status": 0
  },
  {
    "name": "PCYD艺园路90号01井",
    "lng": 113.92770096659662,
    "lat": 22.548800126048523,
    "address": "广东省深圳市南山区南头街道嘉隆公寓(大新路)圣淘沙酒店(马家龙店)附近",
    "code": "20180903154835091",
    "status": 4
  },
  {
    "name": "PT二线巡逻公路长源_梅林071井",
    "lng": 114.02345180511475,
    "lat": 22.57707032710599,
    "address": "广东省深圳市福田区梅林街道塘朗山公园附近",
    "code": "20180326153404408",
    "status": 4
  },
  {
    "name": "PT二线巡逻公路长源_梅林018井",
    "lng": 114.00999784469604,
    "lat": 22.59502366816016,
    "address": "广东省深圳市南山区桃源街道长岭皮路95号深圳道尔顿新华公学附近",
    "code": "20180326120338296",
    "status": 4
  },
  {
    "name": "PT二线巡逻公路长源_梅林136井",
    "lng": 114.06653881072998,
    "lat": 22.573913794059404,
    "address": "广东省深圳市福田区梅林街道梅东三路附近",
    "code": "20180328112600869",
    "status": 4
  },
  {
    "name": "20171031122655492",
    "lng": 113.94762039184573,
    "lat": 22.529623076194902,
    "address": "广东省深圳市南山区粤海街道高新南九道留学生创业大厦附近",
    "code": "20171031122655492",
    "status": 2
  },
  {
    "name": "公园路001",
    "lng": 113.91141459345818,
    "lat": 22.56856894635437,
    "address": "广东省深圳市宝安区新安街道怡园路南一巷灵芝园附近",
    "code": "20180110180451757",
    "status": 2
  },
  {
    "name": "20171031110552645",
    "lng": 113.9927887916565,
    "lat": 22.537996795954037,
    "address": "广东省深圳市南山区沙河街道香山东街92号华侨城创意文化园附近",
    "code": "20171031110552645",
    "status": 4
  },
  {
    "name": "PT二线巡逻公路长源_梅林井012",
    "lng": 114.01480436325073,
    "lat": 22.599936623742938,
    "address": "广东省深圳市南山区桃源街道附近",
    "code": "20180326113412981",
    "status": 4
  },
  {
    "name": "YD园岭新村03园岭新村内73栋旁",
    "lng": 114.09808158874512,
    "lat": 22.55491115152393,
    "address": "广东省深圳市福田区园岭街道福田区园岭街道社区体育活动站园岭新村附近",
    "code": "20180327112933777",
    "status": 2
  },
  {
    "name": "YD八卦工业区在八卦工业区内學小语对面",
    "lng": 114.09733057022095,
    "lat": 22.56297620080807,
    "address": "广东省深圳市福田区园岭街道园岭鹏基文体中心八卦岭工业区北区附近",
    "code": "20180119104949050",
    "status": 2
  },
  {
    "name": "20171023124743946",
    "lng": 113.90943646430969,
    "lat": 22.523871423973958,
    "address": "广东省深圳市南山区南山街道乌石牌附近",
    "code": "20171023124743946",
    "status": 2
  },
  {
    "name": "PT二线巡逻公路长源_梅林120井",
    "lng": 114.0578055381775,
    "lat": 22.572794315776868,
    "address": "广东省深圳市福田区梅林街道梅坳八路深燃大厦附近",
    "code": "20180327125049986",
    "status": 4
  },
  {
    "name": "PT二线巡逻公路长源_梅林057井",
    "lng": 114.01390314102174,
    "lat": 22.582304638189413,
    "address": "广东省深圳市南山区桃源街道福龙路塘朗山公园附近",
    "code": "20180326144345458",
    "status": 4
  },
  {
    "name": "PT二线巡逻公路长源_梅林035井",
    "lng": 114.0063165128231,
    "lat": 22.586831717292874,
    "address": "广东省深圳市南山区桃源街道塘朗山公园附近",
    "code": "20180326131400489",
    "status": 4
  },
  {
    "name": "兴华二路001",
    "lng": 113.90896841883661,
    "lat": 22.567664908527068,
    "address": "广东省深圳市宝安区新安街道灵芝园宝安区兴华幼儿园附近",
    "code": "20180110180452141",
    "status": 2
  },
  {
    "name": "20171023125809395",
    "lng": 113.90932381153107,
    "lat": 22.520410159246165,
    "address": "广东省深圳市南山区南山街道月亮湾大道附近",
    "code": "20171023125809395",
    "status": 4
  },
  {
    "name": "打石一路与创科路交汇",
    "lng": 113.93920898437501,
    "lat": 22.571991852297977,
    "address": "广东省深圳市南山区西丽街道创科路附近",
    "code": "20180110180452029",
    "status": 2
  },
  {
    "name": "PCYD白石路051井",
    "lng": 114.00879621505739,
    "lat": 22.530834571800234,
    "address": "广东省深圳市福田区沙头街道红树林路深圳市人才园附近",
    "code": "20180817110253030",
    "status": 4
  },
  {
    "name": "PT二线巡逻公路长源_梅林058井",
    "lng": 114.01482179760933,
    "lat": 22.581803133675887,
    "address": "广东省深圳市南山区桃源街道福龙路塘朗山公园附近",
    "code": "20180326144548949",
    "status": 4
  },
  {
    "name": "586445455855",
    "lng": 113.89854669570924,
    "lat": 22.583136760169392,
    "address": "广东省深圳市宝安区新安街道怡园路85号布心一村附近",
    "code": "20180110180451654",
    "status": 2
  },
  {
    "name": "PT二线巡逻公路梅林_银湖009井",
    "lng": 114.07447814941408,
    "lat": 22.574131744525925,
    "address": "广东省深圳市福田区梅林街道银湖山郊野公园附近",
    "code": "20180328141422112",
    "status": 4
  },
  {
    "name": "YD泰然01",
    "lng": 114.031240940094,
    "lat": 22.529920376713864,
    "address": "广东省深圳市福田区沙头街道泰然五路天安创新科技广场Ⅱ期附近",
    "code": "20180112150139289",
    "status": 0
  },
  {
    "name": "PCYD大新路02井",
    "lng": 113.92813414335251,
    "lat": 22.548807557536936,
    "address": "广东省深圳市南山区南头街道宏发家私(艺园路)祥泰公寓附近",
    "code": "20180903153625235",
    "status": 4
  },
  {
    "name": "PT二线巡逻公路长源_梅林123井",
    "lng": 114.06022757291794,
    "lat": 22.573943514597858,
    "address": "广东省深圳市福田区梅林街道梅坳三路福田城管附近",
    "code": "20180327142316895",
    "status": 4
  },
  {
    "name": "YD凯丰路01",
    "lng": 114.06363666057588,
    "lat": 22.571424676218676,
    "address": "广东省深圳市福田区梅林街道凯丰路利丰大厦附近",
    "code": "20180111163728082",
    "status": 2
  },
  {
    "name": "PT二线巡逻公路金湖_粤宝009井",
    "lng": 114.09346282482147,
    "lat": 22.569118796599188,
    "address": "广东省深圳市罗湖区清水河街道金景花园银湖警苑附近",
    "code": "20180327105909623",
    "status": 4
  },
  {
    "name": "YD泰然五路01天安数码城光交旁",
    "lng": 114.0307688713074,
    "lat": 22.53215011020772,
    "address": "广东省深圳市福田区沙头街道泰然五路天吉大厦附近",
    "code": "20180112153115114",
    "status": 0
  },
  {
    "name": "新安宝民一路001",
    "lng": 113.90248417854309,
    "lat": 22.561075160573456,
    "address": "广东省深圳市宝安区新安街道宝民一路华丰甲岸商务中心附近",
    "code": "20180110180451765",
    "status": 2
  },
  {
    "name": "PCYD新区大道53#",
    "lng": 114.04278516769408,
    "lat": 22.596053818535744,
    "address": "广东省深圳市龙华区新区大道附近",
    "code": "20180813133926530",
    "status": 4
  },
  {
    "name": "宝民二路YD井",
    "lng": 113.87595176696777,
    "lat": 22.589179399945596,
    "address": "广东省深圳市宝安区西乡街道宝民二路181号宝安农贸批发市场附近",
    "code": "20180730121238742",
    "status": 4
  },
  {
    "name": "南科一路07井",
    "lng": 113.9961576461792,
    "lat": 22.5967669950495,
    "address": "广东省深圳市南山区桃源街道南科一路深圳大学西丽校区附近",
    "code": "20180305102226685",
    "status": 2
  },
  {
    "name": "YD泰然科技园01苍松大夏对面路口",
    "lng": 114.02742952108386,
    "lat": 22.532607201127746,
    "address": "广东省深圳市福田区沙头街道泰然科技园苍松大厦216泰然工贸园2区附近",
    "code": "20180112160027489",
    "status": 4
  },
  {
    "name": "PT二线巡逻公路长源_梅林048井",
    "lng": 114.01231527328491,
    "lat": 22.58584112189023,
    "address": "广东省深圳市南山区桃源街道塘朗山公园附近",
    "code": "20180326141202121",
    "status": 4
  },
  {
    "name": "YD笋岗西路01井",
    "lng": 114.0732765197754,
    "lat": 22.55516876481161,
    "address": "广东省深圳市福田区华富街道笋岗西路笔架山公园附近",
    "code": "20180403141952635",
    "status": 0
  },
  {
    "name": "PT二线巡逻公路长源_梅林127井",
    "lng": 114.06353473663331,
    "lat": 22.57325994059179,
    "address": "广东省深圳市福田区梅林街道汇龙花园附近",
    "code": "20180327144747775",
    "status": 4
  },
  {
    "name": "PCYD侨城南C",
    "lng": 113.967664539814,
    "lat": 22.536330763478198,
    "address": "广东省深圳市南山区沙河街道世界之窗吉洲大楼附近",
    "code": "20180802102450065",
    "status": 4
  },
  {
    "name": "20171031122524280",
    "lng": 113.94779205322268,
    "lat": 22.52998974674287,
    "address": "广东省深圳市南山区粤海街道高新南环路25号留学生创业大厦附近",
    "code": "20171031122524280",
    "status": 2
  },
  {
    "name": "PT二线巡逻公路梅林_银湖013井",
    "lng": 114.07756805419923,
    "lat": 22.572269247609157,
    "address": "广东省深圳市罗湖区清水河街道附近",
    "code": "20180328135111483",
    "status": 4
  },
  {
    "name": "YD信息大厦08信息大厦中间道路口",
    "lng": 114.06344890594484,
    "lat": 22.541741269923,
    "address": "广东省深圳市福田区莲花街道金田路2218号中国移动深圳信息大厦附近",
    "code": "20180118163819057",
    "status": 4
  },
  {
    "name": "YD富国工业区04富国工业区内按摩足疗牌下",
    "lng": 114.06446546316145,
    "lat": 22.572840135309807,
    "address": "广东省深圳市福田区梅林街道凯丰路26号附近",
    "code": "20180118204611322",
    "status": 0
  },
  {
    "name": "PCYD梅村路02井",
    "lng": 114.05366823077203,
    "lat": 22.56766243170296,
    "address": "广东省深圳市福田区梅林街道梅村路77号梅林三村附近",
    "code": "20180903133856661",
    "status": 4
  },
  {
    "name": "PT二线巡逻公路长源_梅林038井",
    "lng": 114.00785341858864,
    "lat": 22.58666084009438,
    "address": "广东省深圳市南山区桃源街道塘朗山公园附近",
    "code": "20180326132449795",
    "status": 4
  },
  {
    "name": "YD梅华路02#",
    "lng": 114.04374808073045,
    "lat": 22.562978677716348,
    "address": "广东省深圳市福田区梅林街道梅丽路天心花园(梅丽路)附近",
    "code": "20180110180451964",
    "status": 2
  },
  {
    "name": "PCYD石鼓路20井",
    "lng": 113.94822791218758,
    "lat": 22.569560904327023,
    "address": "广东省深圳市南山区西丽街道石鼓路新飞通宿舍附近",
    "code": "20180817142418084",
    "status": 4
  },
  {
    "name": "20171029112655699",
    "lng": 113.93905878067018,
    "lat": 22.575043170015228,
    "address": "广东省深圳市南山区西丽街道创科路附近",
    "code": "20171029112655699",
    "status": 4
  },
  {
    "name": "YD园岭新村01园岭新村内",
    "lng": 114.0970301628113,
    "lat": 22.54972905899885,
    "address": "广东省深圳市福田区园岭街道园岭一街小区附近",
    "code": "20180119101921858",
    "status": 2
  },
  {
    "name": "YD黄木岗01上步工业区304顺丰快递门前",
    "lng": 114.08310413360599,
    "lat": 22.546964536151958,
    "address": "广东省深圳市福田区华强北街道福鑫记(华强北店)上步工业区附近",
    "code": "20180118104158024",
    "status": 4
  },
  {
    "name": "新湖路YD井",
    "lng": 113.89062479138373,
    "lat": 22.551548510883997,
    "address": "广东省深圳市宝安区新安街道新湖路附近",
    "code": "20180806130507142",
    "status": 4
  },
  {
    "name": "20171030113239630",
    "lng": 113.945689201355,
    "lat": 22.59096242332162,
    "address": "广东省深圳市南山区西丽街道深圳市家具行业协会深圳职业技术学院西丽湖校区附近",
    "code": "20171030113239630",
    "status": 2
  },
  {
    "name": "西丽沿河路",
    "lng": 113.95847797393799,
    "lat": 22.582819761912532,
    "address": "广东省深圳市南山区西丽街道南国丽城附近",
    "code": "20180110180451737",
    "status": 2
  },
  {
    "name": "YD泰然八路01在泰然八路与滨河大道交汇处",
    "lng": 114.02122020721436,
    "lat": 22.528800541424804,
    "address": "广东省深圳市福田区沙头街道滨河大道百安居(泰然店)附近",
    "code": "20180118213240050",
    "status": 2
  },
  {
    "name": "PT二线巡逻公路长源_梅林121井",
    "lng": 114.05831784009935,
    "lat": 22.573700796679553,
    "address": "广东省深圳市福田区梅林街道梅坳八路268号深燃大厦附近",
    "code": "20180327141035683",
    "status": 4
  },
  {
    "name": "PT二线巡逻公路长源_梅林008井",
    "lng": 114.01424646377563,
    "lat": 22.600441776573053,
    "address": "广东省深圳市南山区桃源街道留仙大道附近",
    "code": "20180326110813370",
    "status": 4
  },
  {
    "name": "PCYD桂花路63井",
    "lng": 114.0672080218792,
    "lat": 22.515833822899566,
    "address": "广东省深圳市福田区福保街道桂花路附近",
    "code": "20180817103648947",
    "status": 4
  },
  {
    "name": "20171023130235170",
    "lng": 113.90892952680589,
    "lat": 22.51953553818763,
    "address": "广东省深圳市南山区南山街道月亮湾大道附近",
    "code": "20171023130235170",
    "status": 4
  },
  {
    "name": "126566",
    "lng": 114.06533181667328,
    "lat": 22.541488586155545,
    "address": "广东省深圳市福田区莲花街道海田路1039-2号中国凤凰大厦附近",
    "code": "20180822091529545",
    "status": 4
  },
  {
    "name": "YD西乡大道与铁仔路",
    "lng": 113.87221813201906,
    "lat": 22.58165082453626,
    "address": "广东省深圳市宝安区西乡街道铁仔路满京华现代西谷大厦附近",
    "code": "20180420134707967",
    "status": 4
  },
  {
    "name": "20171029104847296",
    "lng": 113.95281314849854,
    "lat": 22.565889014219547,
    "address": "广东省深圳市南山区西丽街道裕馨楼附近",
    "code": "20171029104847296",
    "status": 4
  },
  {
    "name": "PT二线巡逻公路金湖_粤宝010井",
    "lng": 114.09451425075534,
    "lat": 22.569035823842384,
    "address": "广东省深圳市罗湖区清水河街道金湖路金湖花园B区附近",
    "code": "20180327110605299",
    "status": 4
  },
  {
    "name": "PT二线巡逻公路白芒关_双界河044井",
    "lng": 113.93295004963875,
    "lat": 22.589896326703055,
    "address": "广东省深圳市南山区西丽街道同乐路深圳市壮大工业区附近",
    "code": "20180402121505818",
    "status": 4
  },
  {
    "name": "石鼓路#08",
    "lng": 113.9480710029602,
    "lat": 22.5764796436041,
    "address": "广东省深圳市南山区西丽街道石鼓路附近",
    "code": "20180110180451869",
    "status": 2
  },
  {
    "name": "PT二线巡逻公路长源_梅林055_1",
    "lng": 114.01310920715333,
    "lat": 22.58336460221592,
    "address": "广东省深圳市南山区桃源街道西丽德记农家菜塘朗山公园附近",
    "code": "20180326143656194",
    "status": 4
  },
  {
    "name": "20171031113830905",
    "lng": 113.98961305618289,
    "lat": 22.54208932866889,
    "address": "广东省深圳市南山区沙河街道燕栖楼燕晗花园附近",
    "code": "20171031113830905",
    "status": 4
  },
  {
    "name": "九祥岭01",
    "lng": 113.95598888397218,
    "lat": 22.583869815844462,
    "address": "广东省深圳市南山区西丽街道沙河西路3162号九祥岭西区附近",
    "code": "20180110180452028",
    "status": 4
  },
  {
    "name": "20171031112527790",
    "lng": 113.99160996079445,
    "lat": 22.538887402838366,
    "address": "广东省深圳市南山区沙河街道香山东街附近",
    "code": "20171031112527790",
    "status": 4
  },
  {
    "name": "YD莲塘尾二路01一路跟二路交接处",
    "lng": 114.01594161987306,
    "lat": 22.56199534162728,
    "address": "广东省深圳市福田区梅林街道莲塘尾一路万泽云顶香蜜湖附近",
    "code": "20180118144624303",
    "status": 2
  },
  {
    "name": "YD梅坳八路01#",
    "lng": 114.05913591384889,
    "lat": 22.573517519600827,
    "address": "广东省深圳市福田区梅林街道梅坳八路与中康路交汇处，福田城管斜对面",
    "code": "20180110180451710",
    "status": 2
  },
  {
    "name": "YD侨香四道03在山香四道与弘毅路交汇处",
    "lng": 114.01041761040689,
    "lat": 22.548760491436873,
    "address": "广东省深圳市福田区香蜜湖街道侨香四道安雅苑附近",
    "code": "20180119144847419",
    "status": 2
  },
  {
    "name": "臣田GJ001出局井",
    "lng": 113.87576133012772,
    "lat": 22.586504821597604,
    "address": "广东省深圳市宝安区西乡街道市场东街宝安农贸批发市场附近",
    "code": "20180726144343795",
    "status": 4
  },
  {
    "name": "PT二线巡逻公路长源_梅林059井",
    "lng": 114.01521205902101,
    "lat": 22.581323916546125,
    "address": "广东省深圳市南山区桃源街道福龙路塘朗山公园附近",
    "code": "20180326144852552",
    "status": 4
  },
  {
    "name": "PC无04",
    "lng": 114.04141187667847,
    "lat": 22.597331590502698,
    "address": "广东省深圳市龙华区新区大道附近",
    "code": "20180813131708174",
    "status": 4
  },
  {
    "name": "YD74区08井",
    "lng": 113.89705270528793,
    "lat": 22.588850033379238,
    "address": "广东省深圳市宝安区新安街道锦玉路润丰商务大厦附近",
    "code": "20180518143958020",
    "status": 4
  },
  {
    "name": "YD安托山一路01#",
    "lng": 114.0017580986023,
    "lat": 22.54746616739431,
    "address": "广东省深圳市福田区香蜜湖街道侨香三路附近",
    "code": "20180110180452021",
    "status": 0
  },
  {
    "name": "PCYD西丽邮政C",
    "lng": 113.9530223608017,
    "lat": 22.57508279707367,
    "address": "广东省深圳市南山区西丽街道文苑路雅丽阁(西丽路)附近",
    "code": "20180803130303148",
    "status": 4
  },
  {
    "name": "园博东街22井",
    "lng": 114.00443628430367,
    "lat": 22.53400943266771,
    "address": "广东省深圳市福田区香蜜湖街道竹子林二路竹盛花园附近",
    "code": "20180110180452151",
    "status": 4
  },
  {
    "name": "PT二线巡逻公路长源_梅林55井",
    "lng": 114.01276588439941,
    "lat": 22.583146666353144,
    "address": "广东省深圳市南山区桃源街道塘朗山公园附近",
    "code": "20180326143517091",
    "status": 4
  },
  {
    "name": "PT二线巡逻公路长源_梅林091井",
    "lng": 114.0375816822052,
    "lat": 22.576056133119774,
    "address": "广东省深圳市福田区梅林街道塘朗山公园附近",
    "code": "20180326164417583",
    "status": 4
  },
  {
    "name": "PCYD梅林阁01井",
    "lng": 114.05461773276329,
    "lat": 22.568441390691376,
    "address": "广东省深圳市福田区梅林街道中康生活区附近",
    "code": "20180903125406260",
    "status": 4
  },
  {
    "name": "沙河西路880井",
    "lng": 113.95457267761232,
    "lat": 22.584147187244795,
    "address": "广东省深圳市南山区西丽街道沙河西路深圳职业技术学院西丽湖校区附近",
    "code": "20180305105237088",
    "status": 0
  },
  {
    "name": "PT二线巡逻公路梅林_银湖003井",
    "lng": 114.06880527734758,
    "lat": 22.575113755705157,
    "address": "广东省深圳市福田区梅林街道梅东四路银湖山郊野公园附近",
    "code": "20180328135744145",
    "status": 4
  },
  {
    "name": "YD丽水路011井",
    "lng": 113.96437749266626,
    "lat": 22.58925740770119,
    "address": "广东省深圳市南山区桃源街道学苑大道(西)桑泰大厦附近",
    "code": "20180110180452105",
    "status": 2
  },
  {
    "name": "PT二线巡逻公路长源_梅林060井",
    "lng": 114.01574850082399,
    "lat": 22.580680004599895,
    "address": "广东省深圳市南山区桃源街道塘朗山公园附近",
    "code": "20180326145052962",
    "status": 4
  },
  {
    "name": "20171023120217055",
    "lng": 113.90955448150635,
    "lat": 22.532526683866774,
    "address": "广东省深圳市南山区南头街道月亮湾大道附近",
    "code": "20171023120217055",
    "status": 2
  },
  {
    "name": "YD八卦工业区14在家得福文化会所门口右边",
    "lng": 114.098147302866,
    "lat": 22.56250558742531,
    "address": "广东省深圳市福田区园岭街道园岭鹏基文体中心八卦岭工业区北区附近",
    "code": "20180119110327075",
    "status": 2
  },
  {
    "name": "20171031102557531",
    "lng": 113.99313211441043,
    "lat": 22.538194984352966,
    "address": "广东省深圳市南山区沙河街道香山东街7号华侨城创意文化园附近",
    "code": "20171031102557531",
    "status": 4
  },
  {
    "name": "YD福田路01福田路边上福田南c光交旁",
    "lng": 114.07731056213379,
    "lat": 22.53371585710149,
    "address": "广东省深圳市福田区福田街道福田路30号住宅小区附近",
    "code": "20180118161147964",
    "status": 2
  },
  {
    "name": "20171023121623539",
    "lng": 113.90981197357179,
    "lat": 22.530405966185285,
    "address": "广东省深圳市南山区南头街道月亮湾大道椰风海岸附近",
    "code": "20171023121623539",
    "status": 4
  },
  {
    "name": "无名井4",
    "lng": 113.91376689076425,
    "lat": 22.564012783041324,
    "address": "广东省深圳市宝安区新安街道新安二路新安公园附近",
    "code": "20180518163550175",
    "status": 4
  },
  {
    "name": "PT二线巡逻公路金湖_粤宝013井",
    "lng": 114.09742981195451,
    "lat": 22.56920176930606,
    "address": "广东省深圳市罗湖区清水河街道东翠花园住宅区金银园附近",
    "code": "20180327113137577",
    "status": 4
  },
  {
    "name": "PC无06",
    "lng": 114.04520988464357,
    "lat": 22.598896597372867,
    "address": "广东省深圳市龙华区民塘路民乐澳门新村附近",
    "code": "20180813141005550",
    "status": 4
  },
  {
    "name": "YD侨香四道01在鸣算泉居小区入口左边",
    "lng": 114.01152804493907,
    "lat": 22.54883852206769,
    "address": "广东省深圳市福田区香蜜湖街道侨香四道龙井小区附近",
    "code": "20180119144545654",
    "status": 2
  },
  {
    "name": "YD莲花山41井",
    "lng": 114.04967039823534,
    "lat": 22.55425349234342,
    "address": "广东省深圳市福田区莲花街道莲花路莲花山公园附近",
    "code": "20180123155915221",
    "status": 0
  },
  {
    "name": "PT二线巡逻公路长源_梅林024井",
    "lng": 114.00682210922243,
    "lat": 22.59248788055144,
    "address": "广东省深圳市南山区桃源街道留仙大道附近",
    "code": "20180326122011922",
    "status": 4
  },
  {
    "name": "PT二线巡逻公路长源_梅林065井",
    "lng": 114.0180914103985,
    "lat": 22.577859139490354,
    "address": "广东省深圳市福田区梅林街道塘朗山公园附近",
    "code": "20180326151513024",
    "status": 4
  },
  {
    "name": "20171031104812407",
    "lng": 113.99416208267212,
    "lat": 22.536192029755657,
    "address": "广东省深圳市南山区沙河街道锦绣花园(侨城东路)锦绣花园1期附近",
    "code": "20171031104812407",
    "status": 4
  },
  {
    "name": "20171030122952987",
    "lng": 113.96779060363771,
    "lat": 22.579818148516026,
    "address": "广东省深圳市南山区桃源街道红花南路塘朗山公园附近",
    "code": "20171030122952987",
    "status": 4
  },
  {
    "name": "20171031115855003",
    "lng": 113.98705959320068,
    "lat": 22.545032309884046,
    "address": "广东省深圳市南山区沙河街道香山中街附近",
    "code": "20171031115855003",
    "status": 4
  },
  {
    "name": "20171030123515128",
    "lng": 113.96774768829347,
    "lat": 22.581987638017832,
    "address": "广东省深圳市南山区桃源街道红花北路众冠·红花岭工业南区附近",
    "code": "20171030123515128",
    "status": 4
  },
  {
    "name": "YD滨河大道02滨河大道与广深高速福田出口侨底下",
    "lng": 114.01909589767455,
    "lat": 22.528295126064247,
    "address": "广东省深圳市福田区沙头街道滨河大道附近",
    "code": "20180118214144512",
    "status": 3
  },
  {
    "name": "科研一路018井",
    "lng": 113.99203777313234,
    "lat": 22.5922204314796,
    "address": "广东省深圳市南山区桃源街道学苑大道1185号深圳大学西丽校区附近",
    "code": "20180305102833871",
    "status": 4
  },
  {
    "name": "YD泰然五路工商银行旁",
    "lng": 114.03083324432376,
    "lat": 22.532120380664608,
    "address": "广东省深圳市福田区沙头街道泰然五路天济大厦附近",
    "code": "20180112152025156",
    "status": 0
  },
  {
    "name": "YD八卦工业区在八卦工业区425栋对面",
    "lng": 114.09765243530275,
    "lat": 22.562986108440946,
    "address": "广东省深圳市福田区园岭街道园岭鹏基文体中心八卦岭工业区北区附近",
    "code": "20180119104736012",
    "status": 2
  },
  {
    "name": "20171110122508964",
    "lng": 113.96924972534181,
    "lat": 22.57979833566911,
    "address": "广东省深圳市南山区桃源街道红花南路闽利达工业大厦附近",
    "code": "20171110122508964",
    "status": 4
  },
  {
    "name": "YD金湖路05#",
    "lng": 114.07915323972703,
    "lat": 22.57195717784481,
    "address": "广东省深圳市罗湖区清水河街道北环大道1034号附近",
    "code": "20180110180451950",
    "status": 4
  },
  {
    "name": "PT二线巡逻公路长源_梅林29井",
    "lng": 114.00738000869751,
    "lat": 22.588931755984202,
    "address": "广东省深圳市南山区桃源街道S301南坪快速附近",
    "code": "20180326125754833",
    "status": 4
  },
  {
    "name": "测试开关锁",
    "lng": 114.06540960073471,
    "lat": 22.541287925187145,
    "address": "广东省深圳市福田区莲花街道中国凤凰大厦B座中国凤凰大厦附近",
    "code": "20180801094447747",
    "status": 4
  },
  {
    "name": "YD留仙大道091井",
    "lng": 113.97645950317381,
    "lat": 22.584450561574418,
    "address": "广东省深圳市南山区桃源街道夏青路附近",
    "code": "20180110180452159",
    "status": 4
  },
  {
    "name": "无名井7",
    "lng": 113.89860704541208,
    "lat": 22.565167008807943,
    "address": "广东省深圳市宝安区新安街道宝民一路宝民社区附近",
    "code": "20180602100942472",
    "status": 4
  },
  {
    "name": "PT二线巡逻公路长源_梅林106井",
    "lng": 114.04810667037965,
    "lat": 22.572863664253227,
    "address": "广东省深圳市福田区梅林街道龙尾路141号塘朗山公园附近",
    "code": "20180327110437374",
    "status": 4
  },
  {
    "name": "YD金地四路02井",
    "lng": 114.03732955455779,
    "lat": 22.522002054472495,
    "address": "广东省深圳市福田区沙头街道金地四路恒安居大厦附近",
    "code": "20180201162501118",
    "status": 2
  },
  {
    "name": "PT二线巡逻公路长源_梅林43井",
    "lng": 114.00911808013919,
    "lat": 22.58565290795834,
    "address": "广东省深圳市南山区桃源街道塘朗山公园附近",
    "code": "20180326133334381",
    "status": 4
  },
  {
    "name": "PT巡逻二线公路长源_梅林025井",
    "lng": 114.00704741477968,
    "lat": 22.5918452589895,
    "address": "广东省深圳市南山区桃源街道附近",
    "code": "20180326125043193",
    "status": 4
  },
  {
    "name": "20171030121224452",
    "lng": 113.96626710891725,
    "lat": 22.580630472787053,
    "address": "广东省深圳市南山区桃源街道红花一路众冠·红花岭工业南区附近",
    "code": "20171030121224452",
    "status": 4
  },
  {
    "name": "YD梅坳八路02",
    "lng": 114.05180007219316,
    "lat": 22.57261970606572,
    "address": "广东省深圳市福田区梅林街道梅坳八路附近",
    "code": "20180111172051072",
    "status": 3
  },
  {
    "name": "侨城东街104井",
    "lng": 113.98160934448242,
    "lat": 22.53812561844568,
    "address": "广东省深圳市南山区沙河街道侨城西街欢乐谷附近",
    "code": "20180306120113458",
    "status": 2
  },
  {
    "name": "20171031105346651",
    "lng": 113.99388313293456,
    "lat": 22.533606849981275,
    "address": "广东省深圳市南山区沙河街道锦绣花园(侨城东路)锦绣花园1期附近",
    "code": "20171031105346651",
    "status": 4
  },
  {
    "name": "YD紫竹七道与深南大道交汇处在紫竹七道旁",
    "lng": 114.00639027357101,
    "lat": 22.533453248893125,
    "address": "广东省深圳市福田区香蜜湖街道紫竹七道博园商务大厦附近",
    "code": "20180119151933519",
    "status": 2
  },
  {
    "name": "PT二线巡逻公路长源_梅林096井",
    "lng": 114.04223129153252,
    "lat": 22.576622051807888,
    "address": "广东省深圳市福田区梅林街道塘朗山公园附近",
    "code": "20180326170752229",
    "status": 4
  },
  {
    "name": "PT二线巡逻公路长源_梅林085井",
    "lng": 114.03312921524048,
    "lat": 22.57616263003073,
    "address": "广东省深圳市福田区梅林街道塘朗山公园附近",
    "code": "20180326162406281",
    "status": 4
  },
  {
    "name": "PT二线巡逻公路白芒关_双界河070井",
    "lng": 113.92187789082529,
    "lat": 22.57112622673324,
    "address": "广东省深圳市宝安区新安街道边检路附近",
    "code": "20180402134028598",
    "status": 4
  },
  {
    "name": "PT二线巡逻公路长源_梅林044井真实井",
    "lng": 114.00974974036218,
    "lat": 22.586619978124208,
    "address": "广东省深圳市南山区桃源街道塘朗山公园附近",
    "code": "20180326135008237",
    "status": 4
  },
  {
    "name": "福兴花园井01",
    "lng": 114.04474854469301,
    "lat": 22.568762137230845,
    "address": "广东省深圳市福田区梅林街道福兴花园福兴花园(龙尾路)附近",
    "code": "20180110180452053",
    "status": 4
  },
  {
    "name": "YD二线巡罗公路井095",
    "lng": 114.0412375330925,
    "lat": 22.576973737524142,
    "address": "广东省深圳市福田区梅林街道塘朗山公园附近",
    "code": "20180110180451975",
    "status": 4
  },
  {
    "name": "PCYD深南大道",
    "lng": 114.06406983733177,
    "lat": 22.54088412507041,
    "address": "广东省深圳市福田区莲花街道金田路344号中国移动深圳信息大厦附近",
    "code": "20180802125113401",
    "status": 4
  },
  {
    "name": "PT二线巡逻公路长源_梅林050井",
    "lng": 114.01299387216568,
    "lat": 22.584451799835623,
    "address": "广东省深圳市南山区桃源街道西丽德记农家菜塘朗山公园附近",
    "code": "20180326141804322",
    "status": 4
  },
  {
    "name": "PT二线巡逻公路长源_梅林082井",
    "lng": 114.02968525886538,
    "lat": 22.575098895562917,
    "address": "广东省深圳市福田区梅林街道塘朗山公园附近",
    "code": "20180326160623855",
    "status": 4
  },
  {
    "name": "PT二线巡逻公路长源_梅林井040",
    "lng": 114.00856822729114,
    "lat": 22.585387922118294,
    "address": "广东省深圳市南山区桃源街道塘朗山公园附近",
    "code": "20180326133100123",
    "status": 4
  },
  {
    "name": "PT二线巡逻公路长源_梅林089井",
    "lng": 114.03578996658325,
    "lat": 22.57598430957521,
    "address": "广东省深圳市福田区梅林街道塘朗山公园附近",
    "code": "20180326164015824",
    "status": 4
  },
  {
    "name": "YD留仙大道079井",
    "lng": 113.979377747,
    "lat": 22.584741553,
    "address": "广东省深圳市南山区桃源街道深圳大学城体育中心深圳大学城体育中心(西一门店)附近",
    "code": "20180110180451666",
    "status": 4
  },
  {
    "name": "PT二线巡逻公路金湖_粤宝016井",
    "lng": 114.09980759024621,
    "lat": 22.569791245606588,
    "address": "广东省深圳市罗湖区清水河街道金湖路凤光小学附近",
    "code": "20180327114409233",
    "status": 4
  },
  {
    "name": "PT二线巡逻公路长源_梅林079井",
    "lng": 114.02735710144046,
    "lat": 22.576370670270506,
    "address": "广东省深圳市福田区梅林街道塘朗山公园附近",
    "code": "20180326155752952",
    "status": 4
  },
  {
    "name": "YD梅坳八路05",
    "lng": 114.0564389526844,
    "lat": 22.570386911324505,
    "address": "广东省深圳市福田区梅林街道梅坳八路塘朗山公园附近",
    "code": "20180111172903476",
    "status": 2
  },
  {
    "name": "福中福DGJ004出局井",
    "lng": 113.87211084365845,
    "lat": 22.565274752565646,
    "address": "广东省深圳市宝安区西乡街道宝源路109号海涛居(渔业村西堤一巷)附近",
    "code": "20180809152434302",
    "status": 4
  },
  {
    "name": "石鼓路#03",
    "lng": 113.94817829132081,
    "lat": 22.56883148773584,
    "address": "广东省深圳市南山区西丽街道石鼓路新飞通宿舍附近",
    "code": "20180110180451725",
    "status": 2
  },
  {
    "name": "PT二线巡逻公路白芒关_双界河044井_真",
    "lng": 113.93093436956407,
    "lat": 22.588193774338567,
    "address": "广东省深圳市南山区西丽街道同乐路附近",
    "code": "20180402122015181",
    "status": 4
  },
  {
    "name": "YD梅华路03一号大楼停车场",
    "lng": 114.06492948532107,
    "lat": 22.56610697737442,
    "address": "广东省深圳市福田区梅林街道梅华路1号梅华1号大楼附近",
    "code": "20180118205327290",
    "status": 4
  },
  {
    "name": "臣田四路YD井01",
    "lng": 113.87494325637819,
    "lat": 22.594379820261242,
    "address": "广东省深圳市宝安区西乡街道荣恒新苑附近",
    "code": "20180804154459619",
    "status": 4
  },
  {
    "name": "PT二线巡逻公路长源_梅林104井",
    "lng": 114.04729261994363,
    "lat": 22.573060564201363,
    "address": "广东省深圳市福田区梅林街道梅北三路塘朗山公园附近",
    "code": "20180326173357411",
    "status": 4
  },
  {
    "name": "PT二线巡逻公路长源_梅林052井",
    "lng": 114.01192501187326,
    "lat": 22.583016647634455,
    "address": "广东省深圳市南山区桃源街道塘朗山公园附近",
    "code": "20180326142313430",
    "status": 4
  },
  {
    "name": "PCYD梅林路01井",
    "lng": 114.05210986733437,
    "lat": 22.563018308242956,
    "address": "广东省深圳市福田区梅林街道合正园附近",
    "code": "20180903112755731",
    "status": 4
  },
  {
    "name": "PCYD留仙西C",
    "lng": 113.94802942872049,
    "lat": 22.581635965098997,
    "address": "广东省深圳市南山区西丽街道石鼓路宝能华府附近",
    "code": "20180803132238963",
    "status": 4
  },
  {
    "name": "YD园博东街15井",
    "lng": 114.0040446817875,
    "lat": 22.536838626809022,
    "address": "广东省深圳市福田区香蜜湖街道竹盛花园18栋竹盛花园附近",
    "code": "20180110180451775",
    "status": 4
  },
  {
    "name": "福中福M出局井",
    "lng": 113.87543678283691,
    "lat": 22.56554225394485,
    "address": "广东省深圳市宝安区西乡街道新湖路4号径贝社区附近",
    "code": "20180809144202592",
    "status": 4
  },
  {
    "name": "PCYD民塘路52#",
    "lng": 114.04480218887332,
    "lat": 22.598480584624603,
    "address": "广东省深圳市龙华区万科·金域华府万科·金域华府(新区大道)附近",
    "code": "20180813140257207",
    "status": 4
  },
  {
    "name": "YD泰然二路03井",
    "lng": 114.02596905827524,
    "lat": 22.53470063343504,
    "address": "广东省深圳市福田区沙头街道泰然公寓区附近",
    "code": "20180403154629330",
    "status": 4
  },
  {
    "name": "20171023123648433",
    "lng": 113.90956521034242,
    "lat": 22.52556114376067,
    "address": "广东省深圳市南山区南山街道月亮湾大道附近",
    "code": "20171023123648433",
    "status": 4
  },
  {
    "name": "PT二线巡逻公路长源_梅林056#",
    "lng": 114.0135557949543,
    "lat": 22.582896534994813,
    "address": "广东省深圳市南山区桃源街道福龙路塘朗山公园附近",
    "code": "20180326144649263",
    "status": 4
  },
  {
    "name": "YD侨香路01#",
    "lng": 114.01590406894687,
    "lat": 22.55261738123257,
    "address": "广东省深圳市福田区香蜜湖街道侨香路与安托山九路交汇处右手边侨香路光交后",
    "code": "20180110180452048",
    "status": 2
  },
  {
    "name": "功能测试",
    "lng": 114.06538680195807,
    "lat": 22.541445233501896,
    "address": "广东省深圳市福田区莲花街道海田路1039-2号中国凤凰大厦附近",
    "code": "20180822144424280",
    "status": 4
  },
  {
    "name": "20171101110216168",
    "lng": 113.99495601654054,
    "lat": 22.593547766209134,
    "address": "广东省深圳市南山区桃源街道木运南方科技大学附近",
    "code": "20171101110216168",
    "status": 2
  },
  {
    "name": "PCYD塘头村2坊",
    "lng": 113.96848127245904,
    "lat": 22.540173136717996,
    "address": "广东省深圳市南山区沙河街道中海深圳湾畔花园附近",
    "code": "20180803141345904",
    "status": 4
  },
  {
    "name": "兴华一路YD井",
    "lng": 113.8905644416809,
    "lat": 22.551809846114082,
    "address": "广东省深圳市宝安区新安街道兴华一路天御附近",
    "code": "20180806130259282",
    "status": 4
  },
  {
    "name": "YD福荣路02#",
    "lng": 114.02917698025705,
    "lat": 22.52043121945835,
    "address": "广东省深圳市福田区沙头街道福荣路附近福荣中路公交站斜对面",
    "code": "20180110180451798",
    "status": 4
  },
  {
    "name": "YD金湖路北01#",
    "lng": 114.08132314682007,
    "lat": 22.57986768062087,
    "address": "广东省深圳市罗湖区清水河街道银湖路23号银湖水库旁",
    "code": "20180110180451822",
    "status": 4
  },
  {
    "name": "YD二线巡逻公路长源井105",
    "lng": 114.04746562242508,
    "lat": 22.572825274922423,
    "address": "广东省深圳市福田区梅林街道梅北三路梅林公园听涛区(建设中)附近",
    "code": "20180110180451652",
    "status": 4
  },
  {
    "name": "YD园博东街12井",
    "lng": 114.0055561065674,
    "lat": 22.537283315362345,
    "address": "广东省深圳市福田区香蜜湖街道红荔西路竹盛花园附近",
    "code": "20180110180451772",
    "status": 2
  },
  {
    "name": "PT二线巡逻公路长源_梅林井26",
    "lng": 114.007465839386,
    "lat": 22.590972328942527,
    "address": "广东省深圳市南山区桃源街道附近",
    "code": "20180326125304939",
    "status": 4
  },
  {
    "name": "PT二线巡逻公路长源_梅林009井",
    "lng": 114.0146528184414,
    "lat": 22.599760810313235,
    "address": "广东省深圳市南山区桃源街道附近",
    "code": "20180326111907623",
    "status": 4
  },
  {
    "name": "西乡二CGJ001出局井",
    "lng": 113.88880491256715,
    "lat": 22.589744026512392,
    "address": "广东省深圳市宝安区西乡街道丽景城附近",
    "code": "20180414152422943",
    "status": 2
  },
  {
    "name": "20171031103625491",
    "lng": 113.9943002164364,
    "lat": 22.536974882506794,
    "address": "广东省深圳市南山区沙河街道开平街锦绣花园4期附近",
    "code": "20171031103625491",
    "status": 4
  },
  {
    "name": "YD信息大厦03信息大厦旁",
    "lng": 114.06368494033813,
    "lat": 22.540801135329545,
    "address": "广东省深圳市福田区莲花街道深南大道中国移动深圳信息大厦附近",
    "code": "20180118163009178",
    "status": 4
  },
  {
    "name": "PCYD北环GJ0",
    "lng": 113.97502049803735,
    "lat": 22.555589862419,
    "address": "广东省深圳市南山区桃源街道高发科技园一路3号高发科技园附近",
    "code": "20180802162246385",
    "status": 4
  },
  {
    "name": "20171023121219458",
    "lng": 113.90962153673175,
    "lat": 22.529585913585056,
    "address": "广东省深圳市南山区南头街道学府路深圳市前海学校附近",
    "code": "20171023121219458",
    "status": 2
  },
  {
    "name": "YD园岭新村08园林岭新村内49栋旁",
    "lng": 114.0974807739258,
    "lat": 22.54987768769057,
    "address": "广东省深圳市福田区园岭街道园岭一街小区附近",
    "code": "20180119102344517",
    "status": 4
  },
  {
    "name": "丽水路028井",
    "lng": 113.97040843963623,
    "lat": 22.59329022465016,
    "address": "广东省深圳市南山区西丽街道丽水路深圳野生动物园附近",
    "code": "20180305104311949",
    "status": 2
  },
  {
    "name": "PT二线巡逻公路长源_梅林020井",
    "lng": 114.0090322494507,
    "lat": 22.59494442550434,
    "address": "广东省深圳市南山区桃源街道深圳道尔顿新华公学附近",
    "code": "20180326120443853",
    "status": 4
  },
  {
    "name": "YD安托山六路美联物业斜对面",
    "lng": 114.00872422960069,
    "lat": 22.54994140625,
    "address": "广东省深圳市福田区香蜜湖街道安托山六路锦庐花园附近",
    "code": "20180327110303585",
    "status": 2
  },
  {
    "name": "YD丽水路018井",
    "lng": 113.977080435,
    "lat": 22.594197809,
    "address": "广东省深圳市南山区桃源街道丽水路北京大学深圳研究生院附近",
    "code": "20180110180451665",
    "status": 4
  },
  {
    "name": "PT二线巡逻公路长源_梅林033井",
    "lng": 114.00600671768188,
    "lat": 22.587485506355854,
    "address": "广东省深圳市南山区桃源街道S301南坪快速塘朗山公园附近",
    "code": "20180326130644972",
    "status": 4
  },
  {
    "name": "20171031114632837",
    "lng": 113.98869037628175,
    "lat": 22.542614511734598,
    "address": "广东省深圳市南山区沙河街道燕栖楼燕晗花园附近",
    "code": "20171031114632837",
    "status": 4
  },
  {
    "name": "留香大道#061",
    "lng": 113.96626710891725,
    "lat": 22.582859386734537,
    "address": "广东省深圳市南山区桃源街道平山村附近",
    "code": "20180305113407539",
    "status": 2
  },
  {
    "name": "YD泰然五路01兴业银行旁",
    "lng": 114.0303812921047,
    "lat": 22.533776554210654,
    "address": "广东省深圳市福田区沙头街道泰然四路57号创新科技广场Ⅰ期A座附近",
    "code": "20180112154340281",
    "status": 0
  },
  {
    "name": "创盛路",
    "lng": 113.95406037569047,
    "lat": 22.561637425365607,
    "address": "广东省深圳市南山区西丽街道G4京港澳高速附近",
    "code": "20180110180451935",
    "status": 2
  },
  {
    "name": "YD梅林路01",
    "lng": 114.05752658843994,
    "lat": 22.569475455044802,
    "address": "广东省深圳市福田区梅林街道中康生活区中康公园附近",
    "code": "20180111173801707",
    "status": 2
  },
  {
    "name": "PCYD新区大道004#",
    "lng": 114.04006004333496,
    "lat": 22.598995647841917,
    "address": "广东省深圳市龙华区新区大道龙光·玖龙玺(建设中)附近",
    "code": "20180813130916162",
    "status": 4
  },
  {
    "name": "宝民二路YD井03",
    "lng": 113.8772365450859,
    "lat": 22.58737530349263,
    "address": "广东省深圳市宝安区西乡街道宝民二路172-5号宝安农贸批发市场附近",
    "code": "20180730122700954",
    "status": 4
  },
  {
    "name": "20171110120308100",
    "lng": 113.96673917770386,
    "lat": 22.582037169342716,
    "address": "广东省深圳市南山区桃源街道红花北路众冠·红花岭工业南区附近",
    "code": "20171110120308100",
    "status": 0
  },
  {
    "name": "PT二线巡逻公路长源_梅林108井",
    "lng": 114.05001640319824,
    "lat": 22.572615990963072,
    "address": "广东省深圳市福田区梅林街道公安街塘朗山公园附近",
    "code": "20180327112533758",
    "status": 4
  },
  {
    "name": "无管道名称",
    "lng": 113.90376627445221,
    "lat": 22.553313442986543,
    "address": "广东省深圳市宝安区新安街道新乐路82号常福楼附近",
    "code": "20180503164448428",
    "status": 4
  },
  {
    "name": "PT二线巡逻公路白芒关_双界河89井",
    "lng": 113.91606822609901,
    "lat": 22.557420383549015,
    "address": "广东省深圳市宝安区新安街道南头关南青路附近",
    "code": "20180402135650902",
    "status": 4
  },
  {
    "name": "YD梅林路02",
    "lng": 114.05784845352174,
    "lat": 22.56883148773584,
    "address": "广东省深圳市福田区梅林街道福贸花园附近",
    "code": "20180111173947267",
    "status": 4
  },
  {
    "name": "YD二线巡逻公路长源99井",
    "lng": 114.04315531253818,
    "lat": 22.5743942753121,
    "address": "广东省深圳市福田区梅林街道塘朗山公园附近",
    "code": "20180110180451738",
    "status": 4
  },
  {
    "name": "YD泰然四路204栋旁",
    "lng": 114.02776479721071,
    "lat": 22.533369015965825,
    "address": "广东省深圳市福田区沙头街道泰然四路206号泰然工贸园2区附近",
    "code": "20180112155336367",
    "status": 2
  },
  {
    "name": "PT巡逻公路长源_梅林井021",
    "lng": 114.00830268859865,
    "lat": 22.5947166026147,
    "address": "广东省深圳市南山区桃源街道留仙大道深圳道尔顿新华公学附近",
    "code": "20180326121221812",
    "status": 4
  },
  {
    "name": "YD竹园小区01",
    "lng": 114.01716470718384,
    "lat": 22.53977057200289,
    "address": "广东省深圳市福田区香蜜湖街道竹园小区竹园小学附近",
    "code": "20180111182141343",
    "status": 2
  },
  {
    "name": "YD侨乡三路01#",
    "lng": 113.99997711181642,
    "lat": 22.547162711675465,
    "address": "广东省深圳市福田区香蜜湖街道侨香三路附近",
    "code": "20180110180451650",
    "status": 4
  },
  {
    "name": "PT二线巡逻公路长源_梅林112井",
    "lng": 114.05280590057374,
    "lat": 22.572437665918574,
    "address": "广东省深圳市福田区梅林街道梅坳八路附近",
    "code": "20180327115535560",
    "status": 4
  },
  {
    "name": "YD01井",
    "lng": 114.03289318084718,
    "lat": 22.529008653094557,
    "address": "广东省深圳市福田区沙头街道顺泰公寓庆泰公寓附近",
    "code": "20180112143850777",
    "status": 4
  },
  {
    "name": "YD前进二路30井",
    "lng": 113.87416139245035,
    "lat": 22.5986105887435,
    "address": "广东省深圳市宝安区西乡街道前进二路信达科技创意园附近",
    "code": "20180503142516641",
    "status": 4
  },
  {
    "name": "YD环湖三路01#",
    "lng": 114.0792578458786,
    "lat": 22.581140649606283,
    "address": "广东省深圳市罗湖区清水河街道银湖路29号银湖山郊野公园附近",
    "code": "20180110180451868",
    "status": 4
  },
  {
    "name": "石鼓路#05",
    "lng": 113.94792079925537,
    "lat": 22.5802342176434,
    "address": "广东省深圳市南山区西丽街道留仙大道西丽人民医院附近",
    "code": "20180110180451956",
    "status": 4
  },
  {
    "name": "PT二线巡逻公路长源_梅林135井之",
    "lng": 114.06594872474672,
    "lat": 22.57393856117522,
    "address": "广东省深圳市福田区梅林街道梅东三路深圳市福田区翰林实验学校附近",
    "code": "20180328110521843",
    "status": 4
  },
  {
    "name": "PCYD新区大道001",
    "lng": 114.042227268219,
    "lat": 22.596539175175877,
    "address": "广东省深圳市龙华区新区大道万科·金域华府(新区大道)附近",
    "code": "20180813132525276",
    "status": 4
  },
  {
    "name": "20171031102127674",
    "lng": 113.99331986904147,
    "lat": 22.53678040842444,
    "address": "广东省深圳市南山区沙河街道一渡堂华侨城创意文化园附近",
    "code": "20171031102127674",
    "status": 4
  },
  {
    "name": "PT二线巡逻公路长源_梅林107井",
    "lng": 114.04900789260864,
    "lat": 22.57259989218381,
    "address": "广东省深圳市福田区梅林街道梅坳八路梅林公园听涛区(建设中)附近",
    "code": "20180327111907162",
    "status": 4
  },
  {
    "name": "YD梅东三路02",
    "lng": 114.06514406204222,
    "lat": 22.574072303523785,
    "address": "广东省深圳市福田区梅林街道汇龙花园附近",
    "code": "20180111170653476",
    "status": 2
  },
  {
    "name": "YD玉律路014#",
    "lng": 113.88313874602318,
    "lat": 22.56601038010964,
    "address": "广东省深圳市宝安区新安街道宝安大道裕丰花园(和丰路)附近",
    "code": "20180428095146226",
    "status": 4
  },
  {
    "name": "YD49栋斜对面03井",
    "lng": 114.01200413703918,
    "lat": 22.538277975660506,
    "address": "广东省深圳市福田区香蜜湖街道金众小区附近",
    "code": "20180327102957161",
    "status": 2
  },
  {
    "name": "西丽湖路与沙河西路交汇",
    "lng": 113.95491600036621,
    "lat": 22.58773810584445,
    "address": "广东省深圳市南山区西丽街道西丽路深圳职业技术学院西丽湖校区附近",
    "code": "20180110180451910",
    "status": 4
  },
  {
    "name": "YD泰然二路01井",
    "lng": 114.02537226676942,
    "lat": 22.534507394859254,
    "address": "广东省深圳市福田区沙头街道泰然公寓区附近",
    "code": "20180403153307024",
    "status": 4
  },
  {
    "name": "动物园路东001井",
    "lng": 113.95778194069861,
    "lat": 22.58867049112225,
    "address": "广东省深圳市南山区西丽街道西丽路大学城创意园附近",
    "code": "20180305111837032",
    "status": 2
  },
  {
    "name": "YD紫竹四路博园东牌坊左边",
    "lng": 114.00699377059938,
    "lat": 22.53755087101629,
    "address": "广东省深圳市福田区香蜜湖街道金海花园深圳国际园林花卉博览园附近",
    "code": "20180327105851881",
    "status": 2
  },
  {
    "name": "PT二线巡逻公路长源_梅林015井",
    "lng": 114.01212215423584,
    "lat": 22.596331165396748,
    "address": "广东省深圳市南山区桃源街道荔枝园(西丽果场分店)附近",
    "code": "20180326115156839",
    "status": 4
  },
  {
    "name": "测试286955284",
    "lng": 114.06538009643556,
    "lat": 22.541254481664073,
    "address": "广东省深圳市福田区莲花街道中国凤凰大厦B座中国凤凰大厦附近",
    "code": "20180913173719613",
    "status": 4
  },
  {
    "name": "前进二路YD井",
    "lng": 113.87582302093509,
    "lat": 22.597054245657148,
    "address": "广东省深圳市宝安区西乡街道前进二路信达科技创意园附近",
    "code": "20180804151302839",
    "status": 4
  },
  {
    "name": "YD宝安大道007井",
    "lng": 113.89895036816597,
    "lat": 22.550776887861254,
    "address": "广东省深圳市宝安区新安街道宝安大道附近",
    "code": "20180523170801442",
    "status": 4
  },
  {
    "name": "20171101105513689",
    "lng": 113.99594306945804,
    "lat": 22.598668781023605,
    "address": "广东省深圳市南山区桃源街道深圳大学西丽校区-材料学院深圳大学西丽校区附近",
    "code": "20171101105513689",
    "status": 2
  },
  {
    "name": "YD金湖路04#",
    "lng": 114.07731860876085,
    "lat": 22.572391846251836,
    "address": "广东省深圳市罗湖区清水河街道附近",
    "code": "20180110180451682",
    "status": 2
  },
  {
    "name": "YD仙科路#04",
    "lng": 113.99019241333009,
    "lat": 22.59102185703655,
    "address": "广东省深圳市南山区桃源街道岭仔路崇文花园附近",
    "code": "20180110180451704",
    "status": 2
  },
  {
    "name": "20171030120643442",
    "lng": 113.96631002426149,
    "lat": 22.581710262269315,
    "address": "广东省深圳市南山区桃源街道红花北路众冠·红花岭工业南区附近",
    "code": "20171030120643442",
    "status": 4
  },
  {
    "name": "PT二线巡逻公路长源_梅林062井",
    "lng": 114.0160918235779,
    "lat": 22.57979833566911,
    "address": "广东省深圳市南山区桃源街道塘朗山公园附近",
    "code": "20180326145544790",
    "status": 4
  },
  {
    "name": "YD泰然04",
    "lng": 114.03104782104492,
    "lat": 22.53109966246863,
    "address": "广东省深圳市福田区沙头街道泰然五路天经大厦附近",
    "code": "20180112150904094",
    "status": 0
  },
  {
    "name": "YD38区04井",
    "lng": 113.90316143631935,
    "lat": 22.55118313615431,
    "address": "广东省深圳市宝安区新安街道龙泉一路新乐花园(龙井路)附近",
    "code": "20180602112439890",
    "status": 4
  },
  {
    "name": "YD侨乡三道01#",
    "lng": 114.00873050093654,
    "lat": 22.54748350770097,
    "address": "广东省深圳市福田区香蜜湖街道侨香三道与安托山六路交汇处，中原地产对面",
    "code": "20180110180452019",
    "status": 2
  },
  {
    "name": "YD福田路02福田南c光交旁",
    "lng": 114.07737493515016,
    "lat": 22.53375549603292,
    "address": "广东省深圳市福田区福田街道福田路30号住宅小区附近",
    "code": "20180118161556858",
    "status": 2
  },
  {
    "name": "PT二线巡逻公路金湖_粤宝011井",
    "lng": 114.0953712165356,
    "lat": 22.56883644134201,
    "address": "广东省深圳市罗湖区清水河街道金湖路深圳亚太幼儿园附近",
    "code": "20180327111727380",
    "status": 4
  },
  {
    "name": "PT二线巡逻公路长源_梅林013井",
    "lng": 114.01354372501375,
    "lat": 22.597103771563397,
    "address": "广东省深圳市南山区桃源街道附近",
    "code": "20180326113954298",
    "status": 4
  },
  {
    "name": "YD福荣路01#",
    "lng": 114.02665436267853,
    "lat": 22.522138324807013,
    "address": "广东省深圳市福田区沙头街道福荣路万科金域蓝湾附近",
    "code": "20180110180451804",
    "status": 4
  },
  {
    "name": "YD银湖山庄01",
    "lng": 114.08479124307632,
    "lat": 22.571238919353483,
    "address": "广东省深圳市罗湖区清水河街道银湖山庄(棕榈泉东南)附近",
    "code": "20180111181931565",
    "status": 4
  },
  {
    "name": "YD凯丰路04梅华路与凯丰路交汇处",
    "lng": 114.0636205673218,
    "lat": 22.566344754968522,
    "address": "广东省深圳市福田区梅林街道梅华路满京华集团商业大厦附近",
    "code": "20180118211144224",
    "status": 4
  },
  {
    "name": "PT二线巡逻公路长源_梅林119井",
    "lng": 114.05722618103029,
    "lat": 22.5719522243508,
    "address": "广东省深圳市福田区梅林街道颐林雅院附近",
    "code": "20180327122637631",
    "status": 4
  },
  {
    "name": "20171023125256532",
    "lng": 113.90956252813338,
    "lat": 22.52296213805819,
    "address": "广东省深圳市南山区南山街道月亮湾大道附近",
    "code": "20171023125256532",
    "status": 4
  },
  {
    "name": "PT二线巡逻公路长源_梅林070井",
    "lng": 114.02260690927505,
    "lat": 22.577090140345184,
    "address": "广东省深圳市福田区梅林街道塘朗山公园附近",
    "code": "20180326153211410",
    "status": 4
  },
  {
    "name": "PT二线巡逻公路长源_梅林083井",
    "lng": 114.03029680252075,
    "lat": 22.575688346643215,
    "address": "广东省深圳市福田区梅林街道塘朗山公园附近",
    "code": "20180326161244146",
    "status": 4
  },
  {
    "name": "创业M出局井",
    "lng": 113.9071297645569,
    "lat": 22.57758918536782,
    "address": "广东省深圳市宝安区新安街道裕安二路328号新安街道大浪社区27区附近",
    "code": "20180414160547540",
    "status": 4
  },
  {
    "name": "YD八卦工业区10八卦工业区内艾美特陶瓷店门口右边",
    "lng": 114.09640520811081,
    "lat": 22.56295514708577,
    "address": "广东省深圳市福田区园岭街道园岭鹏基文体中心八卦岭工业区北区附近",
    "code": "20180119105251202",
    "status": 0
  },
  {
    "name": "YD梅东三路01",
    "lng": 114.06756877899171,
    "lat": 22.5739831419725,
    "address": "广东省深圳市福田区梅林街道梅东四路深圳市福田区翰林实验学校附近",
    "code": "20180111165750691",
    "status": 2
  },
  {
    "name": "壹方中心GJ001出局井",
    "lng": 113.89017015695573,
    "lat": 22.55132433192727,
    "address": "广东省深圳市宝安区新安街道兴华一路壹方中心附近",
    "code": "20180806130810674",
    "status": 4
  },
  {
    "name": "菩提路06",
    "lng": 114.06215608119966,
    "lat": 22.513735149110648,
    "address": "广东省深圳市福田区福保街道菩提路福田保税区新桂花村边检宿舍楼附近",
    "code": "20180201152002362",
    "status": 2
  },
  {
    "name": "PT二线巡逻公路长源_梅林051井",
    "lng": 114.0121865272522,
    "lat": 22.583919346492625,
    "address": "广东省深圳市南山区桃源街道塘朗山公园附近",
    "code": "20180326141913262",
    "status": 4
  },
  {
    "name": "YD梅华路01#",
    "lng": 114.04781162738801,
    "lat": 22.56477937827077,
    "address": "广东省深圳市福田区梅林街道梅华路160号邮政银行旁",
    "code": "20180110180452033",
    "status": 2
  },
  {
    "name": "无名井3",
    "lng": 113.89911800622941,
    "lat": 22.580873178499765,
    "address": "广东省深圳市宝安区新安街道公园路上合小学附近",
    "code": "20180518150330766",
    "status": 4
  },
  {
    "name": "石鼓路#07",
    "lng": 113.94798517227173,
    "lat": 22.57825292483073,
    "address": "广东省深圳市南山区西丽街道打石三路深圳市西丽第二中学附近",
    "code": "20180110180451878",
    "status": 2
  },
  {
    "name": "PT二线巡逻公路长源_梅林014井",
    "lng": 114.01265859603885,
    "lat": 22.597074056021796,
    "address": "广东省深圳市南山区桃源街道荔枝园(西丽果场分店)附近",
    "code": "20180326114307056",
    "status": 4
  },
  {
    "name": "YD湖滨东路01井",
    "lng": 113.91496986150744,
    "lat": 22.5571318118038,
    "address": "广东省深圳市宝安区新安街道湖滨花园附近",
    "code": "20180602110146213",
    "status": 4
  },
  {
    "name": "PT二线巡逻公路白芒关_双界河052井",
    "lng": 113.92942428588869,
    "lat": 22.582859386734537,
    "address": "广东省深圳市南山区西丽街道边检路留仙茗苑附近",
    "code": "20180402130505977",
    "status": 4
  },
  {
    "name": "YD福荣都市绿道01#",
    "lng": 114.04302522540092,
    "lat": 22.512767567995745,
    "address": "广东省深圳市福田区沙头街道福荣路14号福荣都市绿道内",
    "code": "20180110180452064",
    "status": 2
  },
  {
    "name": "PT二线巡逻公路长源_梅林098井",
    "lng": 114.04364883899689,
    "lat": 22.575116232395366,
    "address": "广东省深圳市福田区梅林街道塘朗山公园附近",
    "code": "20180326171400509",
    "status": 4
  },
  {
    "name": "PT二线巡逻公路长源_梅林046井",
    "lng": 114.01101842522621,
    "lat": 22.58695182650114,
    "address": "广东省深圳市南山区桃源街道S301南坪快速塘朗山公园附近",
    "code": "20180326140319511",
    "status": 4
  },
  {
    "name": "YD泰然九路01泰然九路与泰然四路交汇处",
    "lng": 114.02489081025126,
    "lat": 22.533179491691488,
    "address": "广东省深圳市福田区沙头街道泰然四路133-1号泰然工贸园附近",
    "code": "20180118212110806",
    "status": 0
  },
  {
    "name": "20171031123122293",
    "lng": 113.94796371459961,
    "lat": 22.53142668950806,
    "address": "广东省深圳市南山区粤海街道高新南环路金地威新软件科技园北区附近",
    "code": "20171031123122293",
    "status": 2
  },
  {
    "name": "YD宝安邮政02井",
    "lng": 113.8962668180466,
    "lat": 22.56732434479458,
    "address": "广东省深圳市宝安区新安街道宝民一路196号宝通大厦附近",
    "code": "20180602095248441",
    "status": 4
  },
  {
    "name": "YD安华工业区01安华工业区7栋斜对面",
    "lng": 114.02678042650226,
    "lat": 22.531519594775723,
    "address": "广东省深圳市福田区沙头街道安华工业区(泰然八路)附近",
    "code": "20180112160918512",
    "status": 2
  },
  {
    "name": "PT二线巡逻公路长源_梅林42_43井中间",
    "lng": 114.00959819555284,
    "lat": 22.585484505801297,
    "address": "广东省深圳市南山区桃源街道塘朗山公园附近",
    "code": "20180326133908297",
    "status": 4
  },
  {
    "name": "YD泰然八路05在滨河大道转广深高速桥底旁",
    "lng": 114.02098417282107,
    "lat": 22.529662716301075,
    "address": "广东省深圳市福田区沙头街道泰然八路深业泰然大厦附近",
    "code": "20180118213546149",
    "status": 4
  },
  {
    "name": "YD园博东街气象台入口保安亭旁",
    "lng": 114.00898933410646,
    "lat": 22.538234621998598,
    "address": "广东省深圳市福田区香蜜湖街道气象路深圳国际园林花卉博览园附近",
    "code": "20180327105649096",
    "status": 2
  },
  {
    "name": "PT二线巡逻公路长源_梅林017井",
    "lng": 114.01141405105591,
    "lat": 22.59494442550434,
    "address": "广东省深圳市南山区桃源街道长岭皮路8号附近",
    "code": "20180326115637521",
    "status": 4
  },
  {
    "name": "YD宝安大道048_2",
    "lng": 113.8820779323578,
    "lat": 22.566836408380833,
    "address": "广东省深圳市宝安区新安街道宝安大道裕丰花园(和丰路)附近",
    "code": "20180428105413306",
    "status": 4
  },
  {
    "name": "YD八卦工业区16在八卦工业区内二木原木馆面前",
    "lng": 114.09726619720459,
    "lat": 22.562520448925103,
    "address": "广东省深圳市福田区园岭街道园岭鹏基文体中心八卦岭工业区北区附近",
    "code": "20180119105947754",
    "status": 2
  },
  {
    "name": "PT二线巡逻公路长源_梅林117井",
    "lng": 114.0564885735512,
    "lat": 22.570469883268093,
    "address": "广东省深圳市福田区梅林街道梅坳八路塘朗山公园附近",
    "code": "20180327121325752",
    "status": 4
  },
  {
    "name": "PT二线巡逻公路梅林_银湖005井",
    "lng": 114.07065868377686,
    "lat": 22.574508203610865,
    "address": "广东省深圳市福田区梅林街道梅观路银湖山郊野公园附近",
    "code": "20180328133825291",
    "status": 4
  },
  {
    "name": "PT二线巡逻公路长源_梅林028井",
    "lng": 114.00758787989616,
    "lat": 22.589102630365183,
    "address": "广东省深圳市南山区桃源街道附近",
    "code": "20180326125735046",
    "status": 4
  },
  {
    "name": "功能测试1",
    "lng": 114.06534522771835,
    "lat": 22.541400642186773,
    "address": "广东省深圳市福田区莲花街道海田路1039-2号中国凤凰大厦附近",
    "code": "20180822144518514",
    "status": 4
  },
  {
    "name": "YD金湖路10",
    "lng": 114.08211708068849,
    "lat": 22.579342639403357,
    "address": "广东省深圳市罗湖区清水河街道金湖路银湖山郊野公园附近",
    "code": "20180111184352446",
    "status": 4
  },
  {
    "name": "20171023122400450",
    "lng": 113.90951156616211,
    "lat": 22.526640125569056,
    "address": "广东省深圳市南山区南山街道西站前路附近",
    "code": "20171023122400450",
    "status": 2
  },
  {
    "name": "YD福荣路03#",
    "lng": 114.0328985452652,
    "lat": 22.518335093189368,
    "address": "广东省深圳市福田区沙头街道福荣路附近金海湾花园公交站对面",
    "code": "20180110180451864",
    "status": 4
  },
  {
    "name": "YD八卦工业区11在八卦工业区内新中源陶瓷对面",
    "lng": 114.0986166894436,
    "lat": 22.562358210798926,
    "address": "广东省深圳市福田区园岭街道园岭鹏基文体中心八卦岭工业区北区附近",
    "code": "20180119110629609",
    "status": 2
  },
  {
    "name": "PT二线巡逻公路长源_梅林067井",
    "lng": 114.02087688446046,
    "lat": 22.576955162596764,
    "address": "广东省深圳市福田区梅林街道塘朗山公园附近",
    "code": "20180326152358122",
    "status": 4
  },
  {
    "name": "PCYD八卦岭工业区010井",
    "lng": 114.09876018762589,
    "lat": 22.562434995279375,
    "address": "广东省深圳市福田区园岭街道园岭鹏基文体中心八卦岭工业区北区附近",
    "code": "20180817100123890",
    "status": 4
  },
  {
    "name": "PTYD沙河西路6井",
    "lng": 113.95392626523972,
    "lat": 22.576176251722686,
    "address": "广东省深圳市南山区西丽街道西丽南路南蓉大酒店附近",
    "code": "20180803114031842",
    "status": 4
  },
  {
    "name": "金碧花园GJ001出局井",
    "lng": 113.87652844190598,
    "lat": 22.588263115064194,
    "address": "广东省深圳市宝安区西乡街道宝民二路宝安农贸批发市场附近",
    "code": "20180730122027955",
    "status": 0
  },
  {
    "name": "20171031104450902",
    "lng": 113.99387508630753,
    "lat": 22.536315899157458,
    "address": "广东省深圳市南山区沙河街道OMNIALUO华侨城创意文化园附近",
    "code": "20171031104450902",
    "status": 4
  },
  {
    "name": "YD农林路01",
    "lng": 114.0180015563965,
    "lat": 22.538898550871426,
    "address": "广东省深圳市福田区香蜜湖街道深南中学小区深圳高级中学(集团)南校区附近",
    "code": "20180111182624647",
    "status": 2
  },
  {
    "name": "YD富国工业区01彩北出局",
    "lng": 114.06467735767366,
    "lat": 22.57289214665308,
    "address": "广东省深圳市福田区梅林街道凯丰路28号附近",
    "code": "20180118204445930",
    "status": 4
  },
  {
    "name": "20171110122730385",
    "lng": 113.96914377808572,
    "lat": 22.57975375675309,
    "address": "广东省深圳市南山区桃源街道红花南路闽利达工业大厦附近",
    "code": "20171110122730385",
    "status": 4
  },
  {
    "name": "20171110114947711",
    "lng": 113.96774768829347,
    "lat": 22.580858318978596,
    "address": "广东省深圳市南山区桃源街道红花二路众冠·红花岭工业南区附近",
    "code": "20171110114947711",
    "status": 4
  },
  {
    "name": "20171031115418705",
    "lng": 113.98639440536499,
    "lat": 22.544308956681075,
    "address": "广东省深圳市南山区沙河街道香山中街燕晗山郊野公园附近",
    "code": "20171031115418705",
    "status": 4
  },
  {
    "name": "YD泰然五路09天安花本奔中心门前",
    "lng": 114.03072997927669,
    "lat": 22.53210056096563,
    "address": "广东省深圳市福田区沙头街道泰然五路天吉大厦附近",
    "code": "20180112153502014",
    "status": 0
  },
  {
    "name": "YD滨河大道05滨河大道与广深高速转盘桥底下监控光缆",
    "lng": 114.01798546314241,
    "lat": 22.5280845357849,
    "address": "广东省深圳市福田区沙头街道滨河大道附近",
    "code": "20180118214413697",
    "status": 4
  },
  {
    "name": "PT二线巡逻公路白芒关_双界河087井",
    "lng": 113.91603335738182,
    "lat": 22.559122077614564,
    "address": "广东省深圳市宝安区新安街道二线路附近",
    "code": "20180402135449389",
    "status": 4
  },
  {
    "name": "YD福港路01皇岗路与福港路交接",
    "lng": 114.07259926199912,
    "lat": 22.52634157920703,
    "address": "广东省深圳市福田区福田街道福港路深圳出入境检验检疫局(福港路)附近",
    "code": "20180118154914188",
    "status": 2
  },
  {
    "name": "莲花山01井",
    "lng": 114.05276164412497,
    "lat": 22.556828377343308,
    "address": "广东省深圳市福田区莲花街道莲花山公园附近",
    "code": "20180821151438038",
    "status": 3
  },
  {
    "name": "YD二线公路05在梅林二线关公路内",
    "lng": 114.04407262802125,
    "lat": 22.57380481869686,
    "address": "广东省深圳市福田区梅林街道龙尾路181号塘朗山公园附近",
    "code": "20180118215330444",
    "status": 4
  },
  {
    "name": "新围村16",
    "lng": 113.95631074905396,
    "lat": 22.582998073521757,
    "address": "广东省深圳市南山区西丽街道南天路九祥岭东区附近",
    "code": "20180110180451866",
    "status": 2
  },
  {
    "name": "园博东街17井",
    "lng": 114.00407418608665,
    "lat": 22.535734950701507,
    "address": "广东省深圳市福田区香蜜湖街道竹子林二路深圳国际园林花卉博览园附近",
    "code": "20180110180451819",
    "status": 4
  },
  {
    "name": "PT二线巡逻公路长源_梅林110井",
    "lng": 114.05106782913211,
    "lat": 22.572606084022222,
    "address": "广东省深圳市福田区梅林街道梅坳八路附近",
    "code": "20180327113720025",
    "status": 4
  },
  {
    "name": "20171023130537483",
    "lng": 113.90892952680589,
    "lat": 22.51953553818763,
    "address": "广东省深圳市南山区南山街道月亮湾大道附近",
    "code": "20171023130537483",
    "status": 0
  },
  {
    "name": "YD紫竹四道与竹子林四路交界",
    "lng": 114.0069803595543,
    "lat": 22.536896845169064,
    "address": "广东省深圳市福田区香蜜湖街道金海花园附近",
    "code": "20180327110040615",
    "status": 3
  },
  {
    "name": "PT长源_梅林004#",
    "lng": 114.0120792388916,
    "lat": 22.5993324189035,
    "address": "广东省深圳市南山区桃源街道留仙大道附近",
    "code": "20180326103756960",
    "status": 4
  },
  {
    "name": "高职院门口",
    "lng": 113.95457267761232,
    "lat": 22.58744588286462,
    "address": "广东省深圳市南山区西丽街道沙河西路深圳职业技术学院西丽湖校区附近",
    "code": "20180110180451932",
    "status": 4
  },
  {
    "name": "20171031104910846",
    "lng": 113.99416208267212,
    "lat": 22.536190791061067,
    "address": "广东省深圳市南山区沙河街道锦绣花园(侨城东路)锦绣花园1期附近",
    "code": "20171031104910846",
    "status": 4
  },
  {
    "name": "YD皇岗路01林园路j出局往龙华方向右手边",
    "lng": 114.07285809516908,
    "lat": 22.569232729258506,
    "address": "广东省深圳市福田区梅林街道梅观路2-2号华天公寓附近",
    "code": "20180118210154442",
    "status": 2
  },
  {
    "name": "YD桂花路井62",
    "lng": 114.06683921813966,
    "lat": 22.515371720958022,
    "address": "广东省深圳市福田区福保街道桂花路附近",
    "code": "20180320153749753",
    "status": 2
  },
  {
    "name": "测试注册",
    "lng": 114.04405385255814,
    "lat": 22.520115315938448,
    "address": "广东省深圳市福田区沙头街道福强路沙尾东村附近",
    "code": "20180409211508009",
    "status": 4
  },
  {
    "name": "20171101122534351",
    "lng": 113.96390676498412,
    "lat": 22.525123850226134,
    "address": "广东省深圳市南山区沙河街道沙河东路中信红树湾附近",
    "code": "20171101122534351",
    "status": 2
  },
  {
    "name": "PT二线巡逻公路长源_梅林081井",
    "lng": 114.02894496917725,
    "lat": 22.575320559185137,
    "address": "广东省深圳市福田区梅林街道塘朗山公园附近",
    "code": "20180326160507283",
    "status": 4
  },
  {
    "name": "PT二线巡逻公路长源_梅林084井",
    "lng": 114.03129190206529,
    "lat": 22.575746548608908,
    "address": "广东省深圳市福田区梅林街道塘朗山公园附近",
    "code": "20180326161714472",
    "status": 4
  },
  {
    "name": "20171030120922129",
    "lng": 113.96626710891725,
    "lat": 22.581456413438662,
    "address": "广东省深圳市南山区桃源街道红花一路众冠·红花岭工业南区附近",
    "code": "20171030120922129",
    "status": 4
  },
  {
    "name": "YD安托山九路01#",
    "lng": 114.01581689715385,
    "lat": 22.553806381392775,
    "address": "广东省深圳市福田区香蜜湖街道安托山九路侨香村小区门口右手边，公交站后面",
    "code": "20180110180451850",
    "status": 2
  },
  {
    "name": "YD园岭新村10园岭新村入口处",
    "lng": 114.09810304641724,
    "lat": 22.54982814481113,
    "address": "广东省深圳市福田区园岭街道园岭一街小区附近",
    "code": "20180119102510386",
    "status": 2
  },
  {
    "name": "PCYD大新路108号01井",
    "lng": 113.92921507358552,
    "lat": 22.548645303282143,
    "address": "广东省深圳市南山区南头街道大新路金色童年艺术幼儿园(凯虹中路)附近",
    "code": "20180903150608882",
    "status": 4
  },
  {
    "name": "YD在鹏峰汽车对面01",
    "lng": 114.02006149291992,
    "lat": 22.529167214156313,
    "address": "广东省深圳市福田区沙头街道G4京港澳高速深圳市鹏峰汽车销售服务有限公司附近",
    "code": "20180327101332656",
    "status": 2
  },
  {
    "name": "PC无8",
    "lng": 113.9118504524231,
    "lat": 22.578956287040977,
    "address": "广东省深圳市宝安区新安街道新安三路一巷宝安教育工业区附近",
    "code": "20180827161333782",
    "status": 4
  },
  {
    "name": "YD中康路01梅华路与中康路交汇处",
    "lng": 114.05938535928725,
    "lat": 22.564738509811967,
    "address": "广东省深圳市福田区梅林街道旭飞华安园民浩楼附近",
    "code": "20180118211444959",
    "status": 4
  },
  {
    "name": "PT二线巡逻公路白芒关_双界河038井",
    "lng": 113.93162906169893,
    "lat": 22.59430800627048,
    "address": "广东省深圳市南山区西丽街道S33南光高速附近",
    "code": "20180402120433210",
    "status": 4
  },
  {
    "name": "科发路与科智四路",
    "lng": 113.94406244158746,
    "lat": 22.54304679535307,
    "address": "广东省深圳市南山区粤海街道高新中四道7号科苑西住宅小区附近",
    "code": "20180110180452152",
    "status": 0
  },
  {
    "name": "留香大道#057",
    "lng": 113.9678214490414,
    "lat": 22.583012932812117,
    "address": "广东省深圳市南山区桃源街道平山村附近",
    "code": "20180305114029451",
    "status": 2
  },
  {
    "name": "产品测试",
    "lng": 114.06541496515275,
    "lat": 22.54136843733913,
    "address": "广东省深圳市福田区莲花街道海田路1039-2号中国凤凰大厦附近",
    "code": "20180723164306421",
    "status": 4
  },
  {
    "name": "20171030123725307",
    "lng": 113.96755456924438,
    "lat": 22.58181923137997,
    "address": "广东省深圳市南山区桃源街道红花北路众冠·红花岭工业南区附近",
    "code": "20171030123725307",
    "status": 4
  },
  {
    "name": "YD信息大厦15信息大厦旁",
    "lng": 114.06411007046702,
    "lat": 22.54096216015436,
    "address": "广东省深圳市福田区莲花街道金田路346号中国移动深圳信息大厦附近",
    "code": "20180118164406291",
    "status": 4
  },
  {
    "name": "20171023114917618",
    "lng": 113.90940427780154,
    "lat": 22.534835652535822,
    "address": "广东省深圳市南山区南头街道月亮湾大道附近",
    "code": "20171023114917618",
    "status": 2
  },
  {
    "name": "PT二线巡逻公路长源_梅林114井",
    "lng": 114.05422210693361,
    "lat": 22.570555331933896,
    "address": "广东省深圳市福田区梅林街道梅坳八路附近",
    "code": "20180327122601816",
    "status": 4
  },
  {
    "name": "20171031102800367",
    "lng": 113.99332523345947,
    "lat": 22.53825444081716,
    "address": "广东省深圳市南山区沙河街道驴吧咖啡馆(创意园店)华侨城创意文化园附近",
    "code": "20171031102800367",
    "status": 4
  },
  {
    "name": "YD信息大厦01信息大厦旁",
    "lng": 114.06383514404297,
    "lat": 22.540127306332725,
    "address": "广东省深圳市福田区莲花街道深南大道附近",
    "code": "20180118162836038",
    "status": 4
  },
  {
    "name": "PT二线巡逻公路长源_梅林井072井",
    "lng": 114.0242886543274,
    "lat": 22.576301323558795,
    "address": "广东省深圳市福田区梅林街道塘朗山公园附近",
    "code": "20180326153523519",
    "status": 4
  },
  {
    "name": "YD梅坳八路06",
    "lng": 114.05512064695358,
    "lat": 22.57004016236312,
    "address": "广东省深圳市福田区梅林街道梅坳八路塘朗山公园附近",
    "code": "20180111173455250",
    "status": 3
  },
  {
    "name": "YD中康路03梅花华路与中康路乐有家斜对面",
    "lng": 114.05911445617677,
    "lat": 22.56464067314927,
    "address": "广东省深圳市福田区梅林街道东方富苑附近",
    "code": "20180118211725952",
    "status": 2
  },
  {
    "name": "PT二线巡逻公路长源_梅林092井",
    "lng": 114.03869211673738,
    "lat": 22.57584561572805,
    "address": "广东省深圳市福田区梅林街道塘朗山公园附近",
    "code": "20180326165027874",
    "status": 4
  },
  {
    "name": "YD宝安大道0026井",
    "lng": 113.89498472213745,
    "lat": 22.554693170674014,
    "address": "广东省深圳市宝安区新安街道宝安大道1129号附近",
    "code": "20180606162011083",
    "status": 4
  },
  {
    "name": "PT二线巡逻公路长源_梅林101井",
    "lng": 114.04461443424226,
    "lat": 22.573432072771375,
    "address": "广东省深圳市福田区梅林街道龙尾路188号塘朗山公园附近",
    "code": "20180326172353076",
    "status": 4
  },
  {
    "name": "PT二线巡逻公路长源_梅林093井",
    "lng": 114.03955042362215,
    "lat": 22.575874097511623,
    "address": "广东省深圳市福田区梅林街道梅林公园古荔区附近",
    "code": "20180326165703784",
    "status": 4
  },
  {
    "name": "",
    "lng": 114.044351578,
    "lat": 22.522750301,
    "address": "广东省深圳市福田区沙头街道新洲七街新沙小学附近",
    "code": "20180110180451980",
    "status": 4
  },
  {
    "name": "PT二线巡逻公路长源_梅林063井",
    "lng": 114.0162420272827,
    "lat": 22.578799021506306,
    "address": "广东省深圳市福田区梅林街道塘朗山公园附近",
    "code": "20180326150415231",
    "status": 4
  },
  {
    "name": "YD沙尾01#",
    "lng": 114.03965637087823,
    "lat": 22.519726320023707,
    "address": "广东省深圳市福田区沙头街道金地一路120号附近金地工业区136栋楼前",
    "code": "20180110180452005",
    "status": 2
  },
  {
    "name": "20171110114338207",
    "lng": 113.9678093791008,
    "lat": 22.579745088628844,
    "address": "广东省深圳市南山区桃源街道红花南路塘朗山公园附近",
    "code": "20171110114338207",
    "status": 4
  },
  {
    "name": "YD泰然四路03泰然四路农家冲斜对面",
    "lng": 114.02600526809691,
    "lat": 22.533458203769623,
    "address": "广东省深圳市福田区沙头街道泰然四路157号泰然公寓区附近",
    "code": "20180118212333323",
    "status": 0
  },
  {
    "name": "石鼓路#10",
    "lng": 113.94796371459961,
    "lat": 22.575211584934948,
    "address": "广东省深圳市南山区西丽街道打石二路石鼓花园附近",
    "code": "20180110180452172",
    "status": 2
  },
  {
    "name": "YD新安一路19井",
    "lng": 113.89880955219269,
    "lat": 22.551124923819856,
    "address": "广东省深圳市宝安区新安街道宝安大道附近",
    "code": "20180523170457675",
    "status": 4
  },
  {
    "name": "石鼓路#04",
    "lng": 113.9480710029602,
    "lat": 22.579956838364737,
    "address": "广东省深圳市南山区西丽街道石鼓路西丽人民医院附近",
    "code": "20180110180452170",
    "status": 2
  },
  {
    "name": "20171023130911077",
    "lng": 113.90807256102563,
    "lat": 22.51840942445187,
    "address": "广东省深圳市南山区南山街道月亮湾大道附近",
    "code": "20171023130911077",
    "status": 2
  },
  {
    "name": "YD皇岗路03皇岗路与滨河大道交汇处桥底",
    "lng": 114.07387733459474,
    "lat": 22.52786899010768,
    "address": "广东省深圳市福田区福田街道皇岗路附近",
    "code": "20180118152856591",
    "status": 2
  },
  {
    "name": "PT二线巡逻公路长源_梅林053_1井",
    "lng": 114.012508392334,
    "lat": 22.58249285669617,
    "address": "广东省深圳市南山区桃源街道塘朗山公园附近",
    "code": "20180326143149410",
    "status": 4
  },
  {
    "name": "YD金众小区内停车场旁",
    "lng": 114.01302203536034,
    "lat": 22.537777549706306,
    "address": "广东省深圳市福田区香蜜湖街道金众小区附近",
    "code": "20180327103236242",
    "status": 2
  },
  {
    "name": "20171031103901983",
    "lng": 113.99352371692659,
    "lat": 22.53627997704237,
    "address": "广东省深圳市南山区沙河街道恩平街华侨城创意文化园附近",
    "code": "20171031103901983",
    "status": 4
  },
  {
    "name": "YD宝城机楼002井",
    "lng": 113.87747660279275,
    "lat": 22.552779630816513,
    "address": "广东省深圳市宝安区新安街道兴业路第5大道高发西岸花园附近",
    "code": "20180606154828702",
    "status": 4
  },
  {
    "name": "PT长源_梅林005井",
    "lng": 114.01244401931764,
    "lat": 22.599708809114965,
    "address": "广东省深圳市南山区桃源街道留仙大道附近",
    "code": "20180326105205285",
    "status": 4
  },
  {
    "name": "YD龙尾路福兴花园二期",
    "lng": 114.04495909810068,
    "lat": 22.568099590468904,
    "address": "广东省深圳市福田区梅林街道新活力花园福兴花园(龙尾路)附近",
    "code": "20180330111318139",
    "status": 2
  },
  {
    "name": "PT二线巡逻公路长源_梅林054井",
    "lng": 114.01242658495903,
    "lat": 22.582847003978866,
    "address": "广东省深圳市南山区桃源街道塘朗山公园附近",
    "code": "20180326143506362",
    "status": 4
  },
  {
    "name": "YD福港路井60",
    "lng": 114.06540289521219,
    "lat": 22.51434344567834,
    "address": "广东省深圳市福田区福保街道桂花路附近",
    "code": "20180320152828413",
    "status": 2
  },
  {
    "name": "YD园岭一街01红荔枝路与园岭一街交汇处",
    "lng": 114.0982747077942,
    "lat": 22.549267070459884,
    "address": "广东省深圳市福田区园岭街道园岭一街小区附近",
    "code": "20180119102720853",
    "status": 2
  },
  {
    "name": "YD泰然七路01泰然四路与泰然七路交界",
    "lng": 114.02712106704713,
    "lat": 22.5336861278954,
    "address": "广东省深圳市福田区沙头街道泰然四路泰然公寓区附近",
    "code": "20180112163051171",
    "status": 2
  },
  {
    "name": "宝民二路YD井02",
    "lng": 113.87689992785455,
    "lat": 22.587720770600257,
    "address": "广东省深圳市宝安区西乡街道宝民二路252号宝安农贸批发市场附近",
    "code": "20180730122355722",
    "status": 4
  },
  {
    "name": "PT二线巡逻公路长源_梅林007#",
    "lng": 114.01383876800539,
    "lat": 22.600293202403687,
    "address": "广东省深圳市南山区桃源街道留仙大道附近",
    "code": "20180326111015940",
    "status": 4
  },
  {
    "name": "YD侨城北01在侨香三道22号楼出门右边井盖为污水井盖",
    "lng": 114.01068046689034,
    "lat": 22.547451304272617,
    "address": "广东省深圳市福田区香蜜湖街道弘毅路鸿运阁附近",
    "code": "20180119143825199",
    "status": 2
  },
  {
    "name": "PC无05",
    "lng": 114.04413700103758,
    "lat": 22.594766129361908,
    "address": "广东省深圳市龙华区新区大道附近",
    "code": "20180813135036698",
    "status": 4
  },
  {
    "name": "YD梅坳八路01",
    "lng": 114.06586021184921,
    "lat": 22.5737218487608,
    "address": "广东省深圳市福田区梅林街道彩田路深圳市福田区翰林实验学校附近",
    "code": "20180111170908665",
    "status": 2
  },
  {
    "name": "YD凯旋城002井",
    "lng": 113.8985587656498,
    "lat": 22.549571760125755,
    "address": "广东省深圳市宝安区新安街道凯旋城凯旋城(新安西路)附近",
    "code": "20180523172029925",
    "status": 4
  },
  {
    "name": "YD泰然滨河01井",
    "lng": 114.03287172317506,
    "lat": 22.52881045151144,
    "address": "广东省深圳市福田区沙头街道天安社区图书馆顺泰公寓附近",
    "code": "20180112144447258",
    "status": 0
  },
  {
    "name": "PT二线巡逻公路长源_梅林094井",
    "lng": 114.04029607772829,
    "lat": 22.576529176909077,
    "address": "广东省深圳市福田区梅林街道塘朗山公园附近",
    "code": "20180326165845221",
    "status": 4
  },
  {
    "name": "PT二线巡逻公路长源_梅林井30",
    "lng": 114.00734379887584,
    "lat": 22.5886989702545,
    "address": "广东省深圳市南山区桃源街道S301南坪快速附近",
    "code": "20180326130328496",
    "status": 4
  },
  {
    "name": "20171030122800429",
    "lng": 113.967661857605,
    "lat": 22.57988749345785,
    "address": "广东省深圳市南山区桃源街道红花南路众冠·红花岭工业南区附近",
    "code": "20171030122800429",
    "status": 4
  },
  {
    "name": "丽水路018井",
    "lng": 113.97678136825563,
    "lat": 22.594191617999027,
    "address": "广东省深圳市南山区西丽街道丽水路北京大学深圳研究生院附近",
    "code": "20180305103609924",
    "status": 4
  },
  {
    "name": "YD梅华路01",
    "lng": 114.06525000929835,
    "lat": 22.566546617916703,
    "address": "广东省深圳市福田区梅林街道凯丰花园凯丰花园2期附近",
    "code": "20180111163011041",
    "status": 2
  },
  {
    "name": "PT二线巡逻公路长源_梅林137井",
    "lng": 114.06740114092827,
    "lat": 22.573908840635696,
    "address": "广东省深圳市福田区梅林街道梅东四路深圳市福田区翰林实验学校附近",
    "code": "20180328113002357",
    "status": 4
  },
  {
    "name": "YD市建机房出局01井",
    "lng": 114.01204034686091,
    "lat": 22.538473686307597,
    "address": "广东省深圳市福田区香蜜湖街道金众小区附近",
    "code": "20180327102849023",
    "status": 4
  },
  {
    "name": "YD博览园01",
    "lng": 114.00890350341797,
    "lat": 22.537996795954037,
    "address": "广东省深圳市福田区香蜜湖街道气象路深圳国际园林花卉博览园附近",
    "code": "20180111184543838",
    "status": 3
  },
  {
    "name": "YD公安街01",
    "lng": 114.05018806457521,
    "lat": 22.572576363195342,
    "address": "广东省深圳市福田区梅林街道公安街塘朗山公园附近",
    "code": "20180111171508006",
    "status": 2
  },
  {
    "name": "PT二线巡逻公路长源_梅林087井",
    "lng": 114.03400897979738,
    "lat": 22.576449923612582,
    "address": "广东省深圳市福田区梅林街道塘朗山公园附近",
    "code": "20180326163033361",
    "status": 4
  },
  {
    "name": "PT二线巡逻公路长源_梅林036井",
    "lng": 114.00661557912827,
    "lat": 22.587308438791066,
    "address": "广东省深圳市南山区桃源街道S301南坪快速塘朗山公园附近",
    "code": "20180326131512903",
    "status": 4
  },
  {
    "name": "YD银湖路05",
    "lng": 114.08653736114503,
    "lat": 22.571060592527363,
    "address": "广东省深圳市罗湖区清水河街道金湖路银湖山郊野公园附近",
    "code": "20180111181255379",
    "status": 4
  },
  {
    "name": "YD梅华路01一号大楼停车出口右边",
    "lng": 114.06542301177979,
    "lat": 22.56579984737507,
    "address": "广东省深圳市福田区梅林街道越华路2-1号梅华1号大楼附近",
    "code": "20180118205041187",
    "status": 2
  },
  {
    "name": "20171024115319288",
    "lng": 113.9084815979004,
    "lat": 22.513637276296798,
    "address": "广东省深圳市南山区南山街道前海路瑞景华庭(前海路)附近",
    "code": "20171024115319288",
    "status": 2
  },
  {
    "name": "20171023124117838",
    "lng": 113.90948474407199,
    "lat": 22.52494298620665,
    "address": "广东省深圳市南山区南山街道月亮湾大道附近",
    "code": "20171023124117838",
    "status": 2
  },
  {
    "name": "前进一路001",
    "lng": 113.91561895608902,
    "lat": 22.557575196468218,
    "address": "广东省深圳市宝安区新安街道湖滨东路附近",
    "code": "20180110180451948",
    "status": 2
  },
  {
    "name": "20171031120121020",
    "lng": 113.98695230484007,
    "lat": 22.54533948612482,
    "address": "广东省深圳市南山区沙河街道香山中街附近",
    "code": "20171031120121020",
    "status": 4
  },
  {
    "name": "20171023115714720",
    "lng": 113.90953302383423,
    "lat": 22.5315059686737,
    "address": "广东省深圳市南山区南头街道月亮湾大道椰风海岸附近",
    "code": "20171023115714720",
    "status": 4
  },
  {
    "name": "YD泰然十一路01在泰然十一路与滨河大道交界",
    "lng": 114.02310848236087,
    "lat": 22.52920685439331,
    "address": "广东省深圳市福田区沙头街道滨河大道辅道云松大厦附近",
    "code": "20180118212943263",
    "status": 4
  },
  {
    "name": "YD安托山一路10#",
    "lng": 114.00017023086548,
    "lat": 22.5477770539898,
    "address": "广东省深圳市福田区香蜜湖街道侨香三路深康村附近",
    "code": "20180110180452101",
    "status": 0
  },
  {
    "name": "20171023121725921",
    "lng": 113.9097918570042,
    "lat": 22.530020715494555,
    "address": "广东省深圳市南山区南头街道月亮湾大道附近",
    "code": "20171023121725921",
    "status": 4
  },
  {
    "name": "20171101125633647",
    "lng": 113.95632952451707,
    "lat": 22.5837843754345,
    "address": "广东省深圳市南山区西丽街道南天路九祥岭西区附近",
    "code": "20171101125633647",
    "status": 2
  },
  {
    "name": "PT二线巡逻公路长源_梅林077井",
    "lng": 114.0263579785824,
    "lat": 22.577706825990834,
    "address": "广东省深圳市福田区梅林街道塘朗山公园附近",
    "code": "20180326155204063",
    "status": 4
  },
  {
    "name": "长源一街井103",
    "lng": 114.04638335108758,
    "lat": 22.573111337098332,
    "address": "广东省深圳市福田区梅林街道龙尾路196号塘朗山公园附近",
    "code": "20180110180451702",
    "status": 4
  },
  {
    "name": "PT二线巡逻公路长源_梅林井34",
    "lng": 114.00635808706286,
    "lat": 22.586466436067305,
    "address": "广东省深圳市南山区桃源街道塘朗山公园附近",
    "code": "20180326131242600",
    "status": 4
  },
  {
    "name": "YD宝安分局01井",
    "lng": 113.91229435801506,
    "lat": 22.555446193967988,
    "address": "广东省深圳市宝安区新安街道湖滨东路3号附近",
    "code": "20180602104940297",
    "status": 0
  },
  {
    "name": "PT二线巡逻公路长源_梅林047井",
    "lng": 114.01176542043686,
    "lat": 22.58661254867378,
    "address": "广东省深圳市南山区桃源街道塘朗山公园附近",
    "code": "20180326141002662",
    "status": 4
  },
  {
    "name": "PT二线巡逻公路梅林_银湖006井",
    "lng": 114.07162427902223,
    "lat": 22.57434597959181,
    "address": "广东省深圳市福田区梅林街道福田生产基地银湖山郊野公园附近",
    "code": "20180328133040923",
    "status": 4
  },
  {
    "name": "PCYD沙河西路井042",
    "lng": 113.95392894744874,
    "lat": 22.57623197681221,
    "address": "广东省深圳市南山区西丽街道西丽南路南蓉大酒店附近",
    "code": "20180803113025119",
    "status": 4
  },
  {
    "name": "PT巡逻公路长源_梅林井016",
    "lng": 114.01214361190796,
    "lat": 22.595915144895702,
    "address": "广东省深圳市南山区桃源街道荔枝园(西丽果场分店)附近",
    "code": "20180326115320292",
    "status": 4
  },
  {
    "name": "YD梅坳八路03",
    "lng": 114.0531773865223,
    "lat": 22.57223828833871,
    "address": "广东省深圳市福田区梅林街道梅坳八路附近",
    "code": "20180111172251773",
    "status": 2
  },
  {
    "name": "PT二线巡逻公路长源_梅林井37",
    "lng": 114.00742292404176,
    "lat": 22.587386447606395,
    "address": "广东省深圳市南山区桃源街道S301南坪快速塘朗山公园附近",
    "code": "20180326131812702",
    "status": 4
  },
  {
    "name": "YD笋岗西路06井",
    "lng": 114.07690286636354,
    "lat": 22.55531738764335,
    "address": "广东省深圳市福田区华富街道笋岗西路附近",
    "code": "20180403143330972",
    "status": 0
  },
  {
    "name": "20171031122215459",
    "lng": 113.949830532074,
    "lat": 22.531515878566218,
    "address": "广东省深圳市南山区粤海街道高新南环路金地威新软件科技园北区附近",
    "code": "20171031122215459",
    "status": 2
  },
  {
    "name": "PT二线巡逻公路长源_梅林049井",
    "lng": 114.01301398873329,
    "lat": 22.58530124439642,
    "address": "广东省深圳市南山区桃源街道塘朗山公园附近",
    "code": "20180326141434858",
    "status": 4
  },
  {
    "name": "YD沙尾路07#",
    "lng": 114.03996348381042,
    "lat": 22.52079915323587,
    "address": "广东省深圳市福田区沙头街道金地四路36号金地物业大楼附近圣亚轩门窗前",
    "code": "20180110180451638",
    "status": 2
  },
  {
    "name": "PT二线巡逻公路长源_梅林006井",
    "lng": 114.01379585266113,
    "lat": 22.60041206175199,
    "address": "广东省深圳市南山区桃源街道留仙大道附近",
    "code": "20180326110625771",
    "status": 4
  },
  {
    "name": "PCYD艺园路05井",
    "lng": 113.92790481448174,
    "lat": 22.549763739041232,
    "address": "广东省深圳市南山区南头街道荔园新村(明珠荔景西南)附近",
    "code": "20180903160844289",
    "status": 4
  },
  {
    "name": "20171101114520580",
    "lng": 113.94699811935426,
    "lat": 22.53418161382758,
    "address": "广东省深圳市南山区粤海街道科技南五路惠恒大楼附近",
    "code": "20171101114520580",
    "status": 4
  },
  {
    "name": "YD泰然四路01泰然工贸区205栋旁",
    "lng": 114.02787208557132,
    "lat": 22.533111361986826,
    "address": "广东省深圳市福田区沙头街道青云轩茶馆泰然工贸园2区附近",
    "code": "20180112155640687",
    "status": 0
  },
  {
    "name": "20171031113235376",
    "lng": 113.98770332336426,
    "lat": 22.542555057148206,
    "address": "广东省深圳市南山区沙河街道华山村住宅区附近",
    "code": "20171031113235376",
    "status": 4
  },
  {
    "name": "YD信息大厦05信息大厦旁",
    "lng": 114.06321957707408,
    "lat": 22.540472891835694,
    "address": "广东省深圳市福田区莲花街道金田路2204号市民广场附近",
    "code": "20180118163611989",
    "status": 4
  },
  {
    "name": "YD菩提路46井",
    "lng": 114.06691029667854,
    "lat": 22.51699340702793,
    "address": "广东省深圳市福田区福保街道三号路嘉福花园附近",
    "code": "20180201153833290",
    "status": 0
  },
  {
    "name": "PT二线巡逻公路白芒关_双界河037井",
    "lng": 113.93194958567622,
    "lat": 22.59404303708396,
    "address": "广东省深圳市南山区西丽街道同乐路附近",
    "code": "20180402120550547",
    "status": 4
  },
  {
    "name": "PT二线巡逻公路长源_梅林090井",
    "lng": 114.0367488563061,
    "lat": 22.576152723344794,
    "address": "广东省深圳市福田区梅林街道塘朗山公园附近",
    "code": "20180326164216142",
    "status": 4
  },
  {
    "name": "263958695",
    "lng": 114.06541228294371,
    "lat": 22.541557950373054,
    "address": "广东省深圳市福田区莲花街道海田路中国凤凰大厦附近",
    "code": "20180822101234856",
    "status": 4
  },
  {
    "name": "PT二线巡逻公路长源_梅林126井",
    "lng": 114.06269788742067,
    "lat": 22.573299568162977,
    "address": "广东省深圳市福田区梅林街道汇龙花园附近",
    "code": "20180327143738152",
    "status": 4
  },
  {
    "name": "",
    "lng": 114.053645432,
    "lat": 22.520065762,
    "address": "广东省深圳市福田区福保街道中国建设银行(石厦支行)新新家园",
    "code": "20180110180451762",
    "status": 4
  },
  {
    "name": "YD林园东路01林园东路新阁小区对面",
    "lng": 114.07374054193498,
    "lat": 22.568679164259365,
    "address": "广东省深圳市福田区梅林街道新阁社区健康服务中心预防接种门诊华天公寓附近",
    "code": "20180118205716296",
    "status": 2
  },
  {
    "name": "桂花路01井",
    "lng": 114.06325981020927,
    "lat": 22.512824557596115,
    "address": "广东省深圳市福田区福保街道桂花路附近",
    "code": "20180320151433179",
    "status": 2
  },
  {
    "name": "YD梅坳八路02#",
    "lng": 114.06192407011986,
    "lat": 22.57358067591899,
    "address": "广东省深圳市福田区梅林街道梅坳八路汇龙花园附近",
    "code": "20180110180451674",
    "status": 4
  },
  {
    "name": "YD竹子林三路01在竹子林三路与六路交汇处",
    "lng": 114.00630712509157,
    "lat": 22.53434016895041,
    "address": "广东省深圳市福田区香蜜湖街道紫竹六道越海家园附近",
    "code": "20180119151547387",
    "status": 2
  },
  {
    "name": "20171110115458678",
    "lng": 113.96776914596558,
    "lat": 22.581839043936284,
    "address": "广东省深圳市南山区桃源街道红花北路众冠·红花岭工业南区附近",
    "code": "20171110115458678",
    "status": 4
  },
  {
    "name": "pcYD新区大道44#",
    "lng": 114.03759241104127,
    "lat": 22.601125215686366,
    "address": "广东省深圳市龙华区新区大道附近",
    "code": "20180813130055421",
    "status": 4
  },
  {
    "name": "888888",
    "lng": 114.04465735,
    "lat": 22.522701987,
    "address": "广东省深圳市福田区沙头街道新洲七街金福苑(祠堂村一街)附近",
    "code": "20180110180452062",
    "status": 4
  },
  {
    "name": "PT二线巡逻公路长源_梅林045井",
    "lng": 114.00957271456718,
    "lat": 22.58580768917113,
    "address": "广东省深圳市南山区桃源街道塘朗山公园附近",
    "code": "20180326134702907",
    "status": 4
  },
  {
    "name": "YD泰然四路06在新德林酒店门前",
    "lng": 114.02597576379776,
    "lat": 22.533418564752814,
    "address": "广东省深圳市福田区沙头街道泰然四路155号泰然公寓区附近",
    "code": "20180118212617157",
    "status": 0
  },
  {
    "name": "PT二线巡逻公路梅林_银湖014井",
    "lng": 114.07825469970705,
    "lat": 22.57205129419738,
    "address": "广东省深圳市罗湖区清水河街道北环大道1034号附近",
    "code": "20180328134504345",
    "status": 4
  },
  {
    "name": "YD侨乡三道01在侨三道跟安托山六路交汇处",
    "lng": 114.00877475738527,
    "lat": 22.547638331770777,
    "address": "广东省深圳市福田区香蜜湖街道侨香三道蔡屋围侨香雅居附近",
    "code": "20180119142936563",
    "status": 2
  },
  {
    "name": "PT二线巡逻公路长源_梅林053井",
    "lng": 114.0124386548996,
    "lat": 22.582241485869663,
    "address": "广东省深圳市南山区桃源街道塘朗山公园附近",
    "code": "20180326142847204",
    "status": 4
  },
  {
    "name": "YD金湖路09",
    "lng": 114.07898426055911,
    "lat": 22.571546037235404,
    "address": "广东省深圳市罗湖区清水河街道北环大道1034号附近",
    "code": "20180111182400099",
    "status": 4
  },
  {
    "name": "无名井",
    "lng": 113.9070399105549,
    "lat": 22.55075087802124,
    "address": "广东省深圳市宝安区新安街道豪龙高尔夫练习场安乐新苑附近",
    "code": "20180510170030955",
    "status": 4
  },
  {
    "name": "YD曦城025井",
    "lng": 113.89173790812492,
    "lat": 22.60089740302567,
    "address": "广东省深圳市宝安区西乡街道铁岗水库路附近",
    "code": "20180508101520834",
    "status": 4
  },
  {
    "name": "YD笋岗西路12井",
    "lng": 114.07982110977173,
    "lat": 22.55539665308814,
    "address": "广东省深圳市福田区华富街道笋岗西路121号附近",
    "code": "20180403145307538",
    "status": 2
  },
  {
    "name": "YD留仙大道#80",
    "lng": 113.97633075714113,
    "lat": 22.58449390070983,
    "address": "广东省深圳市南山区桃源街道夏青路附近",
    "code": "20180110180451900",
    "status": 2
  },
  {
    "name": "YD泰然02",
    "lng": 114.03151988983156,
    "lat": 22.530078936728987,
    "address": "广东省深圳市福田区沙头街道泰然十路天发大厦附近",
    "code": "20180112150430667",
    "status": 0
  },
  {
    "name": "PT二线巡逻公路长源_梅林066井",
    "lng": 114.01910662651063,
    "lat": 22.577828181475624,
    "address": "广东省深圳市福田区梅林街道塘朗山公园附近",
    "code": "20180326151349126",
    "status": 4
  },
  {
    "name": "PC无01",
    "lng": 113.88597920536998,
    "lat": 22.5902467403233,
    "address": "广东省深圳市宝安区西乡街道御龙居御龙居(西乡大道)附近",
    "code": "20180821100653528",
    "status": 4
  },
  {
    "name": "YD梅龙路01#",
    "lng": 114.0464007854462,
    "lat": 22.601154930353427,
    "address": "广东省深圳市龙华区葡京路惠鑫公寓附近",
    "code": "20180813123729584",
    "status": 4
  },
  {
    "name": "20171023122808258",
    "lng": 113.90944719314575,
    "lat": 22.525857214234748,
    "address": "广东省深圳市南山区南山街道月亮湾大道附近",
    "code": "20171023122808258",
    "status": 4
  },
  {
    "name": "PT二线巡逻公路白芒关_双界河72井",
    "lng": 113.92090290784837,
    "lat": 22.57072251395293,
    "address": "广东省深圳市宝安区新安街道洪浪南路深圳市宝安中学高中部附近",
    "code": "20180402134252173",
    "status": 4
  },
  {
    "name": "YD安托山一路02#",
    "lng": 114.00253862142563,
    "lat": 22.544637191052928,
    "address": "广东省深圳市福田区香蜜湖街道安托山一路附近",
    "code": "20180110180451747",
    "status": 2
  },
  {
    "name": "YD安托山一路在深康村4B栋围墙旁",
    "lng": 113.99787694215776,
    "lat": 22.547972751168842,
    "address": "广东省深圳市福田区香蜜湖街道侨香三路深康村附近",
    "code": "20180327111528759",
    "status": 2
  },
  {
    "name": "PT二线巡逻公路长源_梅林080井",
    "lng": 114.02619436383247,
    "lat": 22.57689943779971,
    "address": "广东省深圳市福田区梅林街道塘朗山公园附近",
    "code": "20180326160039525",
    "status": 4
  },
  {
    "name": "PT二线巡逻公路长源_梅林097井",
    "lng": 114.04306411743164,
    "lat": 22.5760338430582,
    "address": "广东省深圳市福田区梅林街道塘朗山公园附近",
    "code": "20180326171040215",
    "status": 4
  },
  {
    "name": "20171031104331652",
    "lng": 113.99382144212724,
    "lat": 22.536151152828676,
    "address": "广东省深圳市南山区沙河街道锦绣花园(侨城东路)锦绣花园1期附近",
    "code": "20171031104331652",
    "status": 4
  },
  {
    "name": "YD侨乡四路01#",
    "lng": 114.00908187031747,
    "lat": 22.548686176509328,
    "address": "广东省深圳市福田区香蜜湖街道安托山六路与侨乡四道交汇处，安托山六路往侨乡路方向右手边",
    "code": "20180110180452080",
    "status": 2
  },
  {
    "name": "PCYD南山区北环J",
    "lng": 113.97502049803735,
    "lat": 22.555513074127585,
    "address": "广东省深圳市南山区桃源街道高发科技园一路高发科技园附近",
    "code": "20180802163209840",
    "status": 4
  },
  {
    "name": "YD广夏路01梅林路与凯丰路交汇处",
    "lng": 114.06359910964969,
    "lat": 22.567533636788024,
    "address": "广东省深圳市福田区梅林街道广夏路美视厂房附近",
    "code": "20180118210859794",
    "status": 2
  },
  {
    "name": "臣田四路YD井",
    "lng": 113.87550115585327,
    "lat": 22.593759494726118,
    "address": "广东省深圳市宝安区西乡街道臣田新苑附近",
    "code": "20180804154006259",
    "status": 4
  },
  {
    "name": "PT二线巡逻公路白芒关_双界河69井",
    "lng": 113.92242908477785,
    "lat": 22.571724363433464,
    "address": "广东省深圳市宝安区新安街道洪浪南路附近",
    "code": "20180402133541455",
    "status": 4
  },
  {
    "name": "YD信息大厦10井信息大厦旁",
    "lng": 114.0640725195408,
    "lat": 22.541749940436233,
    "address": "广东省深圳市福田区莲花街道金田路362号中国移动深圳信息大厦附近",
    "code": "20180118164109635",
    "status": 4
  },
  {
    "name": "20171030112403589",
    "lng": 113.94624710083009,
    "lat": 22.593399184599278,
    "address": "广东省深圳市南山区西丽街道沙河西路深圳职业技术学院西丽湖校区附近",
    "code": "20171030112403589",
    "status": 2
  },
  {
    "name": "动物园路012井",
    "lng": 113.95500183105469,
    "lat": 22.587703435353838,
    "address": "广东省深圳市南山区西丽街道西丽路深圳职业技术学院西丽湖校区附近",
    "code": "20180305110303199",
    "status": 4
  },
  {
    "name": "YD银湖路01#",
    "lng": 114.08402010798456,
    "lat": 22.580027421537714,
    "address": "广东省深圳市罗湖区清水河街道银湖路银湖山郊野公园附近",
    "code": "20180110180452169",
    "status": 4
  },
  {
    "name": "YD安华工业03安华工业区4栋旁",
    "lng": 114.02673482894896,
    "lat": 22.531456419200495,
    "address": "广东省深圳市福田区沙头街道安华工业区(泰然八路)附近",
    "code": "20180112161936989",
    "status": 2
  },
  {
    "name": "20171023120803282",
    "lng": 113.90966176986694,
    "lat": 22.52998974674287,
    "address": "广东省深圳市南山区南头街道月亮湾大道附近",
    "code": "20171023120803282",
    "status": 4
  },
  {
    "name": "26829",
    "lng": 114.06540423631668,
    "lat": 22.541455142681055,
    "address": "广东省深圳市福田区莲花街道海田路1039-2号中国凤凰大厦附近",
    "code": "20180807175837033",
    "status": 4
  },
  {
    "name": "PT二线巡逻公路长源_梅林022井",
    "lng": 114.00735855102539,
    "lat": 22.593210980996638,
    "address": "广东省深圳市南山区桃源街道留仙大道附近",
    "code": "20180326121446764",
    "status": 4
  },
  {
    "name": "YD梅坳八路04",
    "lng": 114.05688285827637,
    "lat": 22.57125873343102,
    "address": "广东省深圳市福田区梅林街道梅坳八路颐林雅院附近",
    "code": "20180111172528729",
    "status": 3
  },
  {
    "name": "YD八卦工业区12在八卦工业区424栋对面",
    "lng": 114.09671232104301,
    "lat": 22.562358210798926,
    "address": "广东省深圳市福田区园岭街道园岭鹏基文体中心八卦岭工业区北区附近",
    "code": "20180119105622784",
    "status": 2
  },
  {
    "name": "PT二线巡逻公路梅林_银湖017井",
    "lng": 114.07936111092569,
    "lat": 22.571791235698264,
    "address": "广东省深圳市罗湖区清水河街道北环大道1034号附近",
    "code": "20180328131650735",
    "status": 4
  },
  {
    "name": "PT二线巡逻公路长源_梅林068井",
    "lng": 114.0207052230835,
    "lat": 22.576905629444934,
    "address": "广东省深圳市福田区梅林街道塘朗山公园附近",
    "code": "20180326152134063",
    "status": 4
  },
  {
    "name": "YD兰江山第01福龙路桥底",
    "lng": 114.02124166488647,
    "lat": 22.558240270792446,
    "address": "广东省深圳市福田区梅林街道北环大道辅路附近",
    "code": "20180118145614822",
    "status": 2
  },
  {
    "name": "20171023125458687",
    "lng": 113.90965640544891,
    "lat": 22.522856838893873,
    "address": "广东省深圳市南山区南山街道月亮湾大道附近",
    "code": "20171023125458687",
    "status": 4
  },
  {
    "name": "YD流塘路28井",
    "lng": 113.89744699001314,
    "lat": 22.58733072702851,
    "address": "广东省深圳市宝安区新安街道流塘路布心二村附近",
    "code": "20180518144622332",
    "status": 4
  },
  {
    "name": "20171031123532731",
    "lng": 113.94974470138551,
    "lat": 22.53147623899191,
    "address": "广东省深圳市南山区粤海街道高新南环路金地威新软件科技园北区附近",
    "code": "20171031123532731",
    "status": 2
  },
  {
    "name": "PT二线巡逻公路长源_梅林102井",
    "lng": 114.04542312026024,
    "lat": 22.573121244002888,
    "address": "广东省深圳市福田区梅林街道龙尾路192号塘朗山公园附近",
    "code": "20180326172554338",
    "status": 4
  },
  {
    "name": "YD梅东四路01#",
    "lng": 114.0680193901062,
    "lat": 22.575498880499495,
    "address": "广东省深圳市福田区梅林街道梅东四路，深圳市看守所门口",
    "code": "20180110180451815",
    "status": 4
  },
  {
    "name": "YD园岭新村05园岭新村内53栋旁",
    "lng": 114.0969403088093,
    "lat": 22.55017989887001,
    "address": "广东省深圳市福田区园岭街道园岭西路附近",
    "code": "20180119102147849",
    "status": 2
  },
  {
    "name": "YD红荔西路01",
    "lng": 114.00707960128787,
    "lat": 22.53772924116422,
    "address": "广东省深圳市福田区香蜜湖街道园博东街60号深圳国际园林花卉博览园附近",
    "code": "20180111182818002",
    "status": 2
  },
  {
    "name": "无名井5",
    "lng": 113.91224473714831,
    "lat": 22.558236555302337,
    "address": "广东省深圳市宝安区新安街道御景台妇儿大厦附近",
    "code": "20180518165028834",
    "status": 4
  },
  {
    "name": "石鼓路#02",
    "lng": 113.94813537597656,
    "lat": 22.568781951664413,
    "address": "广东省深圳市南山区西丽街道石鼓路新飞通宿舍附近",
    "code": "20180110180452142",
    "status": 2
  },
  {
    "name": "YD福兴名菜旁三页井",
    "lng": 114.04499530792236,
    "lat": 22.567206695309675,
    "address": "广东省深圳市福田区梅林街道梅林路132号润裕花园附近",
    "code": "20180330111616078",
    "status": 4
  },
  {
    "name": "PCYD南山区侨城南C",
    "lng": 113.96680891513824,
    "lat": 22.53634438910412,
    "address": "广东省深圳市南山区沙河街道白石街美庐锦园附近",
    "code": "20180802110634935",
    "status": 4
  },
  {
    "name": "PT二线巡逻公路长源_梅林039井",
    "lng": 114.00853604078294,
    "lat": 22.586007047116897,
    "address": "广东省深圳市南山区桃源街道塘朗山公园附近",
    "code": "20180326132615548",
    "status": 4
  },
  {
    "name": "YD金湖路02#",
    "lng": 114.08238396048546,
    "lat": 22.579508572457218,
    "address": "广东省深圳市罗湖区清水河街道银湖路银湖山郊野公园附近",
    "code": "20180110180451729",
    "status": 4
  },
  {
    "name": "PT二线巡逻公路梅林_银湖029井",
    "lng": 114.08569246530534,
    "lat": 22.571149755969245,
    "address": "广东省深圳市罗湖区清水河街道北环大道1006号深圳市企沃汽车有限公司附近",
    "code": "20180328145445159",
    "status": 4
  },
  {
    "name": "YD安托山六路01在安托山六路与侨乡三道交汇处",
    "lng": 114.00912880897522,
    "lat": 22.547151564309818,
    "address": "广东省深圳市福田区香蜜湖街道园博绿苑蔡屋围侨香雅居附近",
    "code": "20180118214922435",
    "status": 0
  },
  {
    "name": "石鼓路#06",
    "lng": 113.94792079925537,
    "lat": 22.5802342176434,
    "address": "广东省深圳市南山区西丽街道留仙大道西丽人民医院附近",
    "code": "20180110180451876",
    "status": 2
  },
  {
    "name": "石鼓路#09",
    "lng": 113.94787788391113,
    "lat": 22.575340372675875,
    "address": "广东省深圳市南山区西丽街道打石二路石鼓花园附近",
    "code": "20180110180451856",
    "status": 4
  },
  {
    "name": "YD前进二路14井",
    "lng": 113.88312935829164,
    "lat": 22.58952238609658,
    "address": "广东省深圳市宝安区西乡街道西乡大道街心公园附近",
    "code": "20180503155456779",
    "status": 4
  },
  {
    "name": "PT二线巡逻公路长源_梅林124井",
    "lng": 114.06111001968385,
    "lat": 22.57396332828659,
    "address": "广东省深圳市福田区梅林街道梅坳八路附近",
    "code": "20180327141844791",
    "status": 4
  },
  {
    "name": "PT二线巡逻公路长源_梅林044井",
    "lng": 114.00974035263063,
    "lat": 22.585524129856772,
    "address": "广东省深圳市南山区桃源街道塘朗山公园附近",
    "code": "20180326134219853",
    "status": 4
  },
  {
    "name": "YD皇岗路05井皇岗路与滨河大道交接桥底旁",
    "lng": 114.07442182302475,
    "lat": 22.527528328150314,
    "address": "广东省深圳市福田区福田街道百合七路皇御苑(皇岗路)附近",
    "code": "20180118153231692",
    "status": 2
  },
  {
    "name": "PT二线巡逻公路长源_梅林074井",
    "lng": 114.0246091783047,
    "lat": 22.57757184884648,
    "address": "广东省深圳市福田区梅林街道塘朗山公园附近",
    "code": "20180326154526344",
    "status": 4
  },
  {
    "name": "20171031121933895",
    "lng": 113.95025968551637,
    "lat": 22.532893346706057,
    "address": "广东省深圳市南山区粤海街道高新公寓高新公寓(科技南路)附近",
    "code": "20171031121933895",
    "status": 2
  },
  {
    "name": "PT二线巡逻公路长源_梅林井045",
    "lng": 114.01044175028801,
    "lat": 22.586577877899842,
    "address": "广东省深圳市南山区桃源街道塘朗山公园附近",
    "code": "20180326140100336",
    "status": 4
  },
  {
    "name": "PT二线巡逻公路白芒关_双界河041井",
    "lng": 113.93313646316531,
    "lat": 22.591735059615015,
    "address": "广东省深圳市南山区西丽街道同乐路附近",
    "code": "20180402121048744",
    "status": 4
  },
  {
    "name": "产品测试南山",
    "lng": 113.9362907409668,
    "lat": 22.543932415157265,
    "address": "广东省深圳市南山区粤海街道高新中三道11号环球数码大厦附近",
    "code": "20190427094947308",
    "status": 4
  },
  {
    "name": "YD兰江山第03进兰江山第上泊",
    "lng": 114.02038201689722,
    "lat": 22.558459484531777,
    "address": "广东省深圳市福田区梅林街道北环香蜜立交附近",
    "code": "20180118150332947",
    "status": 2
  },
  {
    "name": "PT二线巡逻公路金湖_粤宝008井",
    "lng": 114.09253746271133,
    "lat": 22.569268642794643,
    "address": "广东省深圳市罗湖区清水河街道金景花园银湖住宅区附近",
    "code": "20180327104622526",
    "status": 4
  },
  {
    "name": "YD滨河大道01滨河大道与皇岗路辅导桥底旁",
    "lng": 114.07556578516962,
    "lat": 22.528739842128743,
    "address": "广东省深圳市福田区福田街道滨河大道辅道附近",
    "code": "20180118153739718",
    "status": 2
  },
  {
    "name": "PT二线巡逻公路长源_梅林027井",
    "lng": 114.00753021240236,
    "lat": 22.590080820204385,
    "address": "广东省深圳市南山区桃源街道附近",
    "code": "20180326125442039",
    "status": 4
  },
  {
    "name": "YD笋岗西路08井",
    "lng": 114.0781903266907,
    "lat": 22.55531738764335,
    "address": "广东省深圳市福田区华富街道笋岗西路笔架山公园附近",
    "code": "20180403144457807",
    "status": 2
  }
]
